     3.03           OBSERVATION DATA    M: Mixed            RINEX VERSION / TYPE
rinex ON            NSL                 20191112 155907 UTC PGM / RUN BY / DATE
                                                            MARKER NAME
                                                            MARKER TYPE
rinex ON User                                               OBSERVER / AGENCY
 -2854010.8114  4666983.2050  3268467.7142                  APPROX POSITION XYZ
XXXXXXXX            Xiaomi              MI 8                REC # / TYPE / VERS
XXXXXXXX            MI 8                                    ANT # / TYPE
        0.0000        0.0000        0.0000                  APPROX POSITION XYZ
        0.0000        0.0000        0.0000                  ANTENNA: DELTA H/E/N
G    8 C1C L1C D1C S1C C5X L5X D5X S5X                      SYS / # / OBS TYPES
R    4 C1C L1C D1C S1C                                      SYS / # / OBS TYPES
  2019    11    12    07    59   26.0000924     GPS         TIME OF FIRST OBS
                                                            END OF HEADER
> 2019 11 12 07 59 26.0000924  0  8
G10  20295346.824      -24094.759         850.452          39.271    20295340.228      -63878.675         635.091          37.338
G12  21561648.881         294.392         -22.821          42.616                                                            
G15  24970413.842       36230.809       -2077.931          34.633                                                            
G20  20591929.704       26802.560       -1532.704          23.731                                                            
G24  22843092.856       68874.416       -2453.545          36.351    22843086.860      181027.906       -1832.025          33.031
G25  21140265.099      -86283.988        2720.350          27.320    21140226.126     -295437.092        2050.396          19.179
G31  23159043.228      -56811.596        3241.124          36.457                                                            
G32  21816272.809     -211891.090        1708.449          16.916                                                            
> 2019 11 12 07 59 27.0000924  0  8
G10  20295189.133      -24944.633         849.874          38.567    20295178.940      -64513.278         634.603          37.214
G12  21561658.774         317.973         -23.582          43.254                                                            
G15  24970792.780       38309.643       -2079.283          31.127                                                            
G20  20592221.402       28329.105       -1530.145          20.650                                                            
G24  22843561.431       71328.034       -2453.618          36.703    22843555.136      182860.255       -1832.350          32.262
G25  21139738.963      -89034.300        2731.910          22.352    21139707.785     -297478.518        2041.193          20.712
G31  23158431.352      -60053.242        3241.646          32.836                                                            
G32  21815833.613     -213598.922        1712.431          13.688                                                            
> 2019 11 12 07 59 28.0000924  0  8
G10  20295023.647      -25793.790         849.157          38.572    20295017.052      -65147.417         634.139          38.629
G12  21561660.273         342.279         -24.306          43.267                                                            
G15  24971180.412       40388.364       -2079.281          27.904                                                            
G20  20592512.200       29857.752       -1532.231          19.469                                                            
G24  22844024.311       73781.696       -2453.662          37.790    22844021.913      184692.489       -1832.233          33.792
G25  21139216.725      -91795.901        2755.445          18.692    21139184.947     -299515.269        2040.312          21.067
G31  23157813.479      -63294.216        3240.973          32.573                                                            
G32  21815395.316     -215310.241        1715.175          13.925                                                            
> 2019 11 12 07 59 29.0000924  0  8
G10  20294864.158      -26642.237         848.446          38.666    20294855.464      -65780.976         633.559          38.547
G12  21561667.768         367.394         -25.115          43.244                                                            
G15  24971583.632       42467.331       -2079.607          27.763                                                            
G20  20592800.901       31387.983       -1537.380          20.084                                                            
G24  22844491.987       76235.577       -2453.881          38.471    22844488.690      186524.955       -1832.466          33.623
G25  21138697.784      -94554.192        2758.214          15.329    21138664.507     -301556.036        2041.983          20.786
G31  23157192.909      -66534.670        3240.454          32.374                                                            
G32  21814956.720     -217024.492        1710.907          14.012                                                            
> 2019 11 12 07 59 30.0000924  0  8
G10  20294702.870      -27489.920         847.683          38.739    20294694.176      -66414.008         633.032          38.323
G12  21561668.967         393.238         -25.844          42.890                                                            
G15  24971979.958       44546.444       -2079.113          29.887                                                            
G20  20593092.898       32925.980       -1542.739          19.837                                                            
G24  22844961.462       78689.551       -2453.974          38.639    22844955.466      188357.491       -1832.537          33.064
G25  21138175.845      -97317.840        2756.366          11.908    21138145.866     -303594.792        2040.252          22.038
G31  23156578.334      -69774.740        3240.070          32.004                                                            
G32  21814527.117     -218731.956        1712.755          14.657                                                            
> 2019 11 12 07 59 31.0000924  0  8
G10  20294542.181      -28337.031         847.111          38.329    20294532.887      -67046.568         632.560          38.452
G12  21561676.762         419.318         -26.080          42.502                                                            
G15  24972380.781       46625.655       -2079.211          31.104                                                            
G20  20593383.397       34465.492       -1543.707          18.911                                                            
G24  22845430.038       81143.156       -2453.605          38.690    22845422.243      190190.049       -1832.558          33.176
G25  21137653.907     -100073.204        2743.295          14.951    21137627.525     -305634.280        2038.814          21.683
G31  23155962.561      -73014.488        3239.748          31.560                                                            
G32  21814088.521     -220439.867        1697.511          12.001                                                            
> 2019 11 12 07 59 32.0000924  0  8
G10  20294380.593      -29183.419         846.388          38.866    20294372.198      -67678.627         632.058          38.952
G12  21561683.057         446.589         -27.271          43.390                                                            
G15  24972778.305       48705.044       -2079.389          33.494                                                            
G20  20593681.991       36008.544       -1542.672          20.922                                                            
G24  22845893.817       83597.345       -2454.189          38.724    22845889.320      192022.751       -1832.702          33.743
G25  21137143.360     -102805.785        2726.843          18.402    21137105.586     -307671.292        2040.996          22.268
G31  23155346.187      -76253.949        3239.461          31.732                                                            
G32  21813656.820     -222141.645        1705.267          13.446                                                            
> 2019 11 12 07 59 33.0000924  0  8
G10  20294219.304      -30029.520         846.101          39.212    20294210.910      -68310.476         631.849          39.055
G12  21561687.255         474.261         -27.673          43.456                                                            
G15  24973186.023       50784.151       -2079.107          35.226                                                            
G20  20593977.886       37551.134       -1539.577          21.857                                                            
G24  22846360.294       86051.223       -2453.877          38.418    22846356.097      193855.182       -1832.431          33.927
G25  21136607.331     -105523.040        2724.708          20.380    21136585.446     -309711.463        2037.340          22.880
G31  23154731.313      -79493.406        3239.456          32.018                                                            
G32  21813222.121     -223851.497        1698.807          13.915                                                            
> 2019 11 12 07 59 34.0000924  0  8
G10  20294054.718      -30875.711         846.191          39.028    20294049.922      -68942.369         631.893          39.567
G12  21561694.150         501.886         -27.624          42.815                                                            
G15  24973582.948       52862.655       -2078.504          35.946                                                            
G20  20594274.680       39093.602       -1544.268          22.761                                                            
G24  22846829.169       88504.499       -2453.276          37.563    22846823.173      195687.206       -1832.024          35.146
G25  21136106.378     -108246.833        2730.315          20.962    21136066.506     -311746.432        2035.446          22.912
G31  23154114.940      -82733.291        3239.886          31.618                                                            
G32  21812779.927     -225561.887        1703.761          14.688                                                            
> 2019 11 12 07 59 35.0000924  0  8
G10  20293894.030      -31721.259         845.548          39.347    20293888.633      -69573.787         631.418          40.396
G12  21561698.946         530.228         -28.342          41.650                                                            
G15  24973975.377       54941.199       -2078.543          37.142                                                            
G20  20594572.374       40636.636       -1543.034          23.034                                                            
G24  22847291.749       90957.806       -2453.307          35.885    22847290.250      197519.197       -1831.991          35.787
G25  21135582.940     -110976.713        2731.371          22.587    21135546.965     -313785.225        2038.656          21.363
G31  23153496.168      -85972.873        3239.581          33.477                                                            
G32  21812348.825     -227270.751        1709.819          17.763                                                            
> 2019 11 12 07 59 36.0000924  0  8
G10  20293733.940      -32566.150         844.891          39.110    20293728.244      -70204.710         630.923          39.571
G12  21561701.645         559.249         -29.021          42.560                                                            
G15  24974380.096       57019.918       -2078.719          37.546                                                            
G20  20594871.267       42180.161       -1543.525          24.013                                                            
G24  22847759.425       93411.135       -2453.329          36.514    22847756.727      199351.189       -1831.992          35.608
G25  21135059.203     -113706.155        2729.725          22.711    21135028.025     -315824.564        2038.160          22.073
G31  23152882.493      -89212.023        3239.150          32.527                                                            
G32  21811914.726     -228977.010        1709.552          16.566                                                            
> 2019 11 12 07 59 37.0000924  0  8
G10  20293575.350      -33410.144         843.994          38.783    20293567.556      -70834.956         630.246          38.267
G12  21561710.339         589.265         -30.016          42.287                                                            
G15  24974775.223       59099.001       -2079.083          37.966                                                            
G20  20595159.967       43724.468       -1544.942          22.759                                                            
G24  22848226.202       95864.872       -2453.737          33.973    22848224.403      201183.566       -1832.377          32.661
G25  21134531.868     -116434.900        2729.700          22.117    21134508.484     -317862.222        2037.099          22.894
G31  23152272.116      -92450.786        3238.764          31.486                                                            
G32  21811476.729     -230680.258        1703.808          12.882                                                            
> 2019 11 12 07 59 38.0000924  0  8
G10  20293414.961      -34252.585         842.441          38.273    20293407.167      -71464.040         629.084          38.024
G12  21561713.636         620.877         -31.612          41.632                                                            
G15  24975170.649       61179.106       -2080.105          38.031                                                            
G20  20595453.764       45268.057       -1546.445          22.002                                                            
G24  22848694.178       98319.558       -2454.686          35.034    22848690.281      203016.617       -1833.051          31.336
G25  21134016.825     -119162.080        2727.686          22.203    21133987.745     -319898.818        2034.855          22.665
G31  23151652.145      -95688.202        3237.416          31.897                                                            
G32  21811043.229     -232390.547        1706.531          12.490                                                            
> 2019 11 12 07 59 39.0000924  0  8
G10  20293254.872      -35093.247         840.662          38.595    20293247.677      -72091.826         627.786          38.191
G12  21561722.030         654.348         -33.472          41.569                                                            
G15  24975572.671       63260.427       -2081.322          38.968                                                            
G20  20595753.557       46810.337       -1549.449          22.857                                                            
G24  22849159.756      100775.438       -2455.880          35.860    22849159.456      204850.573       -1833.956          31.700
G25  21133495.785     -121887.912        2725.832          25.127    21133468.804     -321931.709        2029.111          21.923
G31  23151037.570      -98924.241        3236.039          33.136                                                            
G32  21810608.530     -234098.432        1705.502          13.575                                                            
> 2019 11 12 07 59 40.0000924  0  8
G10  20293091.485      -35933.292         840.045          38.245    20293087.888      -72719.182         627.356          39.622
G12  21561727.727         688.402         -34.053          39.717                                                            
G15  24975963.001       65341.764       -2081.337          38.931                                                            
G20  20596039.858       48358.376       -1550.700          23.424                                                            
G24  22849626.533      103231.271       -2455.833          34.912    22849625.633      206684.555       -1833.982          35.124
G25  21132982.541     -124612.988        2725.076          27.843    21132950.463     -323974.807        2037.868          20.170
G31  23150425.094     -102159.988        3235.747          34.254                                                            
G32  21810174.730     -235806.191        1705.116          17.338                                                            
> 2019 11 12 07 59 41.0000924  0  8
G10  20292933.494      -36772.926         839.634          39.197    20292927.798      -73346.197         627.014          39.793
G12  21561729.225         722.997         -34.595          41.028                                                            
G15  24976356.029       67422.956       -2081.192          39.526                                                            
G20  20596330.057       49906.641       -1548.733          23.907                                                            
G24  22850095.108      105686.990       -2455.720          34.681    22850093.609      208518.404       -1833.849          34.258
G25  21132462.700     -127337.848        2724.860          27.744    21132433.321     -326007.037        2032.386          19.323
G31  23149813.218     -105395.691        3235.703          32.961                                                            
G32  21809740.631     -237513.946        1698.571          17.310                                                            
> 2019 11 12 07 59 42.0000924  0  8
G10  20292771.906      -37611.950         839.024          39.859    20292768.009      -73972.735         626.538          39.818
G12  21561738.519         758.269         -35.272          40.866                                                            
G15  24976754.153       69504.308       -2081.352          39.940                                                            
G20  20596627.452       51455.422       -1548.949          24.343                                                            
G24  22850560.986      108142.804       -2455.814          34.726    22850560.686      210352.264       -1833.859          33.847
G25  21131948.556     -130062.125        2724.277          27.604    21131913.181     -328049.512        2034.630          18.797
G31  23149190.549     -108631.034        3235.343          33.178                                                            
G32  21809306.531     -239221.717        1704.351          17.273                                                            
> 2019 11 12 07 59 43.0000924  0  8
G10  20292614.216      -38450.067         838.117          39.762    20292608.519      -74598.609         625.875          39.671
G12  21561740.318         794.486         -36.217          40.599                                                            
G15  24977151.977       71585.939       -2081.631          40.697                                                            
G20  20596919.449       53005.009       -1549.716          25.683                                                            
G24  22851026.563      110598.841       -2456.036          34.528    22851028.662      212186.325       -1834.061          33.146
G25  21131426.618     -132786.095        2723.970          27.966    21131393.940     -330083.589        2030.391          18.498
G31  23148572.077     -111865.905        3234.871          32.421                                                            
G32  21808870.933     -240929.168        1711.734          16.762                                                            
> 2019 11 12 07 59 44.0000924  0  8
G10  20292455.925      -39287.297         837.229          38.857    20292449.030      -75223.788         625.179          39.990
G12  21561749.312         831.709         -37.223          41.430                                                            
G15  24977549.502       73667.958       -2082.019          40.514                                                            
G20  20597215.345       54555.528       -1551.150          25.546                                                            
G24  22851497.837      113055.265       -2456.424          34.906    22851495.139      214020.588       -1834.263          31.958
G25  21130909.776     -135508.643        2722.548          28.032    21130878.597     -332117.730        2033.067          18.560
G31  23147953.905     -115100.133        3234.227          34.713                                                            
G32  21808432.037     -242626.298        1706.595          16.166                                                            
> 2019 11 12 07 59 45.0000924  0  8
G10  20292295.236      -40123.793         836.497          38.534    20292290.140      -75848.457         624.669          40.369
G12  21561761.903         869.626         -37.917          41.748                                                            
G15  24977945.828       75750.116       -2082.158          40.871                                                            
G20  20597513.638       56106.669       -1551.141          25.760                                                            
G24  22851960.117      115511.851       -2456.586          33.291    22851961.916      215855.048       -1834.460          33.151
G25  21130394.732     -138230.786        2722.143          29.973    21130357.558     -334149.951        2032.510          20.448
G31  23147339.630     -118334.021        3233.888          37.656                                                            
G32  21807998.237     -244333.368        1705.776          16.887                                                            
> 2019 11 12 07 59 46.0000924  0  8
G10  20292136.047      -40959.844         836.051          38.836    20292130.950      -76472.796         624.338          40.418
G12  21561766.100         908.086         -38.460          42.241                                                            
G15  24978343.653       77832.227       -2082.111          41.216                                                            
G20  20597806.835       57657.985       -1551.316          26.102                                                            
G24  22852427.194      117968.197       -2456.346          31.956    22852428.993      217689.357       -1834.310          31.135
G25  21129879.389     -140952.436        2721.650          30.200    21129845.213     -336175.900        2029.907          19.504
G31  23146722.058     -121567.806        3233.786          37.185                                                            
G32  21807563.538     -246040.572        1708.569          18.608                                                            
> 2019 11 12 07 59 47.0000924  0  8
G10  20291975.358      -41795.257         835.413          39.757    20291972.360      -77096.659         623.863          39.781
G12  21561777.492         947.237         -39.152          42.722                                                            
G15  24978742.976       79914.440       -2082.213          41.212                                                            
G20  20598103.330       59209.940       -1551.954          26.759                                                            
G24  22852894.570      120424.700       -2456.503          32.172    22852896.969      219523.722       -1834.365          29.688
G25  21129365.844     -143673.563        2721.127          29.858    21129322.075     -338207.382        2036.274          18.742
G31  23146105.984     -124801.260        3233.454          35.154                                                            
G32  21807127.640     -247747.610        1713.361          16.644                                                            
> 2019 11 12 07 59 48.0000924  0  8
G10  20291819.765      -42629.735         834.478          39.610    20291813.170      -77719.804         623.145          39.427
G12  21561784.087         987.404         -40.166          43.057                                                            
G15  24979138.402       81997.009       -2082.569          40.865                                                            
G20  20598399.525       60762.722       -1552.782          26.542                                                            
G24  22853363.446      122881.508       -2456.808          33.462    22853365.244      221358.426       -1834.704          29.653
G25  21128852.000     -146393.944        2720.382          29.676    21128807.631     -340237.387        2028.828          17.973
G31  23145487.512     -128034.091        3232.831          34.540                                                            
G32  21806693.240     -249454.286        1711.110          15.336                                                            
> 2019 11 12 07 59 49.0000924  0  8
G10  20291657.878      -43463.395         833.660          39.483    20291654.580      -78342.300         622.496          39.505
G12  21561793.681        1028.501         -41.097          43.563                                                            
G15  24979531.430       84079.944       -2082.935          40.483                                                            
G20  20598694.221       62316.318       -1553.596          26.460                                                            
G24  22853837.418      125338.604       -2457.096          34.430    22853831.422      223193.251       -1834.825          30.480
G25  21128333.959     -149113.414        2719.470          29.735    21128287.791     -342269.624        2026.572          17.846
G31  23144876.535     -131266.375        3232.285          35.946                                                            
G32  21806263.938     -251170.458        1711.402          16.030                                                            
> 2019 11 12 07 59 50.0000924  0 12
G10  20291500.187      -44296.102         832.707          39.558    20291495.990      -78964.163         621.862          40.256
G12  21561802.375        1070.505         -42.003          43.570                                                            
G15  24979931.953       86163.174       -2083.230          40.965                                                            
G20  20598993.713       63870.765       -1554.447          26.285                                                            
G24  22854301.796      127796.039       -2457.435          33.976    22854298.199      225028.292       -1835.041          31.459
G25  21127818.915     -151832.209        2718.794          30.822    21127773.347     -344296.395        2025.846          18.582
G31  23144260.762     -134498.122        3231.747          36.995                                                            
G32  21805834.335     -252877.023        1707.153          16.098                                                            
R02  20554737.152     -150532.127        3265.055          22.418                                                            
R12  19204552.565      -69938.159        1241.257          32.083                                                            
R11  20561299.309      108438.592       -2400.435          37.941                                                            
R01  20021191.717       34917.635        -649.773          35.455                                                            
> 2019 11 12 07 59 51.0000924  0 12
G10  20291342.796      -45128.335         832.233          39.213    20291337.699      -79585.575         621.413          40.235
G12  21561811.668        1113.143         -42.638          43.618                                                            
G15  24980329.778       88246.419       -2083.245          41.436                                                            
G20  20599285.711       65425.437       -1554.672          26.178                                                            
G24  22854772.170      130253.435       -2457.396          34.022    22854766.175      226863.338       -1835.046          31.564
G25  21127298.476     -154550.532        2718.324          30.997    21127249.909     -346326.603        2032.311          19.936
G31  23143643.189     -137729.705        3231.583          37.221                                                            
G32  21805398.737     -254583.603        1703.258          16.112                                                            
R02  20554127.074     -153796.047        3263.888          22.080                                                            
R12  19204322.624      -71178.753        1240.593          32.112                                                            
R11  20561755.293      110839.428       -2400.837          38.161                                                            
R01  20021318.530       35567.924        -650.288          35.658                                                            
> 2019 11 12 07 59 52.0000924  0 12
G10  20291182.107      -45960.028         831.693          38.301    20291179.709      -80206.689         621.113          40.394
G12  21561818.564        1156.233         -43.090          43.218                                                            
G15  24980724.904       90329.556       -2083.137          41.084                                                            
G20  20599585.803       66980.584       -1555.147          26.181                                                            
G24  22855238.947      132710.662       -2457.226          34.845    22855235.050      228698.223       -1834.885          33.286
G25  21126782.533     -157268.474        2717.942          31.668    21126737.564     -348354.218        2030.262          19.577
G31  23143032.212     -140961.176        3231.471          36.008                                                            
G32  21804961.040     -256285.922        1700.312          15.198                                                            
R02  20553523.891     -157062.103        3263.289          22.574                                                            
R12  19204089.386      -72418.681        1239.929          32.125                                                            
R11  20562203.783      113240.502       -2401.073          37.200                                                            
R01  20021439.346       36218.609        -650.685          35.564                                                            
> 2019 11 12 07 59 53.0000924  0 12
G10  20291027.714      -46791.038         831.011          38.907    20291022.018      -80827.266         620.577          40.082
G12  21561825.459        1200.144         -43.911          42.816                                                            
G15  24981121.829       92412.866       -2083.310          40.167                                                            
G20  20599877.502       68536.389       -1556.603          25.684                                                            
G24  22855706.024      135168.041       -2457.379          35.675    22855700.628      230533.229       -1835.006          29.528
G25  21126267.190     -159985.821        2717.346          31.056    21126216.225     -350383.333        2029.676          19.158
G31  23142416.139     -144192.234        3231.058          37.447                                                            
G32  21804521.844     -257992.369        1701.526          15.392                                                            
R02  20552921.908     -160333.264        3264.045          22.618                                                            
R12  19203857.046      -73657.700        1239.018          32.176                                                            
R11  20562646.876      115642.181       -2401.679          38.777                                                            
R01  20021566.458       36869.958        -651.349          36.214                                                            
> 2019 11 12 07 59 54.0000924  0 12
G10  20290867.924      -47620.982         829.944          38.931    20290863.428      -81447.038         619.772          40.173
G12  21561836.551        1245.173         -45.029          43.478                                                            
G15  24981521.153       94496.714       -2083.848          40.040                                                            
G20  20600173.697       70093.040       -1556.914          25.397                                                            
G24  22856173.700      137625.963       -2457.922          34.569    22856168.604      232368.753       -1835.525          27.458
G25  21125750.947     -162702.133        2716.313          30.715    21125703.880     -352414.963        2029.728          19.858
G31  23141800.065     -147422.496        3230.262          37.444                                                            
G32  21804085.646     -259698.169        1697.782          15.389                                                            
R02  20552314.829     -163596.774        3264.026          22.796                                                            
R12  19203623.808      -74895.474        1237.774          32.184                                                            
R11  20563101.061      118044.806       -2402.625          38.529                                                            
R01  20021680.979       37522.338        -652.380          36.460                                                            
> 2019 11 12 07 59 55.0000924  0 12
G10  20290711.133      -48450.018         829.036          38.636    20290706.336      -82066.087         619.049          40.206
G12  21561845.845        1291.220         -46.047          44.164                                                            
G15  24981915.080       96581.004       -2084.290          40.428                                                            
G20  20600465.095       71650.662       -1557.622          24.998                                                            
G24  22856640.177      140084.199       -2458.236          35.164    22856636.580      234204.560       -1835.807          28.136
G25  21125238.002     -165417.692        2715.559          29.854    21125185.239     -354441.618        2024.924          19.278
G31  23141185.790     -150652.229        3229.733          37.406                                                            
G32  21803651.846     -261401.065        1707.305          10.338                                                            
R02  20551733.531     -166858.748        3259.796          22.869                                                            
R12  19203404.959      -76132.125        1236.651          31.868                                                            
R11  20563549.251      120448.211       -2403.405          37.763                                                            
R01  20021800.296       38175.600        -653.262          36.179                                                            
> 2019 11 12 07 59 56.0000924  0 12
G10  20290553.442      -49278.142         828.124          38.792    20290548.346      -82684.529         618.441          39.469
G12  21561853.939        1338.204         -46.985          44.172                                                            
G15  24982315.003       98665.571       -2084.566          39.691                                                            
G20  20600762.789       73209.010       -1558.349          25.299                                                            
G24  22857112.350      142542.755       -2458.556          35.157    22857105.155      236040.476       -1835.916          29.278
G25  21124722.659     -168132.432        2714.740          30.195    21124668.696     -356470.720        2028.881          18.486
G31  23140568.518     -153881.369        3229.140          37.018                                                            
G32  21803216.547     -263111.529        1708.957          13.515                                                            
R02  20551098.571     -170120.055        3257.468          21.752                                                            
R12  19203169.922      -77367.775        1235.650          31.887                                                            
R11  20563997.441      122852.369       -2404.158          37.107                                                            
R01  20021929.507       38829.687        -654.088          35.857                                                            
> 2019 11 12 07 59 57.0000924  0 12
G10  20290395.152      -50105.438         827.296          39.257    20290390.655      -83302.326         617.797          39.723
G12  21561859.335        1386.022         -47.818          43.948                                                            
G15  24982706.832      100750.390       -2084.819          39.735                                                            
G20  20601064.380       74768.181       -1559.700          24.674                                                            
G24  22857577.029      145001.576       -2458.821          35.102    22857572.832      237876.563       -1836.087          29.712
G25  21124207.016     -170846.409        2713.977          30.077    21124150.055     -358497.359        2028.620          17.940
G31  23139956.342     -157110.000        3228.631          37.442                                                            
G32  21802783.047     -264815.332        1693.524          17.239                                                            
R02  20550451.918     -173376.931        3252.843          20.070                                                            
R12  19202940.881      -78602.340        1234.565          32.189                                                            
R11  20564450.727      125257.194       -2404.825          37.541                                                            
R01  20022048.224       39484.559        -654.872          36.184                                                            
> 2019 11 12 07 59 58.0000924  0 12
G10  20290239.859      -50931.979         826.541          39.638    20290233.564      -83919.564         617.238          40.050
G12  21561871.027        1434.709         -48.686          44.325                                                            
G15  24983105.256      102835.429       -2085.039          39.611                                                            
G20  20601367.470       76327.909       -1559.728          24.622                                                            
G24  22858049.202      147460.506       -2458.930          35.490    22858042.307      239712.800       -1836.237          29.930
G25  21123697.369     -173559.872        2713.463          29.321    21123636.211     -360528.143        2029.298          18.517
G31  23139339.069     -160338.260        3228.260          37.390                                                            
G32  21802350.747     -266520.313        1697.364          16.719                                                            
R02  20549852.333     -176632.157        3258.536          19.689                                                            
R12  19202709.741      -79836.042        1233.701          31.792                                                            
R11  20564896.518      127662.664       -2405.470          37.074                                                            
R01  20022180.433       40140.138        -655.578          36.305                                                            
> 2019 11 12 07 59 59.0000924  0 12
G10  20290083.967      -51757.822         825.843          39.299    20290076.173      -84536.224         616.659          39.846
G12  21561882.120        1484.168         -49.460          44.182                                                            
G15  24983503.081      104920.696       -2085.267          40.250                                                            
G20  20601657.070       77888.278       -1560.369          24.446                                                            
G24  22858515.679      149919.676       -2459.170          35.459    22858509.083      241549.129       -1836.329          29.652
G25  21123182.625     -176272.602        2712.730          28.626    21123119.069     -362558.052        2024.184          19.330
G31  23138726.293     -163566.053        3227.793          37.090                                                            
G32  21801921.744     -268225.364        1699.213          14.635                                                            
R02  20549297.417     -179888.409        3262.462          20.612                                                            
R12  19202481.299      -81068.829        1232.788          32.423                                                            
R11  20565346.507      130068.728       -2406.065          37.599                                                            
R01  20022297.352       40796.328        -656.190          35.982                                                            
> 2019 11 12 08 00  0.0000924  0 12
G10  20289922.979      -52582.821         824.999          38.918    20289919.381      -85152.308         616.084          40.082
G12  21561890.214        1534.499         -50.331          44.267                                                            
G15  24983900.306      107006.213       -2085.518          40.030                                                            
G20  20601950.866       79449.313       -1561.171          23.630                                                            
G24  22858985.753      152379.097       -2459.421          35.776    22858978.259      243385.753       -1836.624          29.819
G25  21122664.883     -178984.553        2711.951          27.781    21122604.925     -364586.630        2028.728          18.613
G31  23138111.119     -166793.460        3227.407          36.082                                                            
G32  21801482.847     -269910.127        1711.563          13.879                                                            
R02  20548637.574     -183151.453        3262.188          20.326                                                            
R12  19202251.658      -82300.613        1231.783          33.400                                                            
R11  20565811.485      132475.418       -2406.690          37.765                                                            
R01  20022421.166       41453.332        -657.004          36.050                                                            
> 2019 11 12 08 00  1.0000924  0 12
G10  20289765.887      -53406.993         824.172          38.763    20289762.290      -85767.793         615.485          40.152
G12  21561898.908        1585.685         -51.186          44.541                                                            
G15  24984299.629      109092.047       -2085.834          40.098                                                            
G20  20602250.659       81011.253       -1562.548          23.172                                                            
G24  22859453.729      154838.671       -2459.574          35.661    22859444.736      245222.458       -1836.705          29.886
G25  21122148.341     -181695.823        2711.270          27.987    21122090.181     -366615.870        2025.314          19.206
G31  23137496.245     -170020.274        3226.814          37.022                                                            
G32  21801045.150     -271614.622        1707.646          15.244                                                            
R02  20548034.092     -186416.624        3261.917          21.406                                                            
R12  19202010.924      -83531.361        1230.748          32.700                                                            
R11  20566245.285      134882.725       -2407.307          37.246                                                            
R01  20022536.287       42111.086        -657.755          35.809                                                            
> 2019 11 12 08 00  2.0000924  0 12
G10  20289612.394      -54230.490         823.497          38.937    20289605.798      -86382.671         614.878          40.191
G12  21561910.000        1637.661         -51.976          44.465                                                            
G15  24984697.754      111178.006       -2085.959          40.255                                                            
G20  20602550.151       82573.458       -1564.901          21.699                                                            
G24  22859923.804      157298.478       -2459.807          35.520    22859913.012      247059.336       -1836.878          29.772
G25  21121632.098     -184406.367        2710.544          27.031    21121574.538     -368632.763        2020.023          19.572
G31  23136879.871     -173246.747        3226.474          36.840                                                            
G32  21800613.749     -273319.062        1706.930          13.102                                                            
R02  20547471.981     -189672.804        3258.730          23.069                                                            
R12  19201794.175      -84761.230        1229.869          32.392                                                            
R11  20566702.768      137290.714       -2407.989          37.013                                                            
R01  20022668.495       42769.511        -658.425          35.809                                                            
> 2019 11 12 08 00  3.0000924  0 12
G10  20289456.801      -55053.204         822.713          38.902    20289449.307      -86997.085         614.414          40.015
G12  21561918.395        1690.425         -52.764          44.621                                                            
G15  24985096.478      113264.109       -2086.103          40.445                                                            
G20  20602842.749       84141.762       -1565.679          19.384                                                            
G24  22860388.482      159758.326       -2459.848          35.046    22860381.587      248896.190       -1836.854          29.856
G25  21121117.954     -187116.473        2710.106          24.896    21121059.795     -370655.191        2020.113          18.282
G31  23136269.494     -176472.842        3226.095          37.206                                                            
G32  21800175.453     -275036.502        1708.393          11.770                                                            
R02  20546859.505     -192931.973        3258.582          22.871                                                            
R12  19201534.554      -85990.200        1228.970          32.597                                                            
R11  20567153.656      139699.180       -2408.465          36.692                                                            
R01  20022800.104       43428.626        -659.115          36.145                                                            
> 2019 11 12 08 00  4.0000924  0 12
G10  20289297.312      -55875.247         822.043          39.038    20289292.815      -87610.964         613.879          40.007
G12  21561929.487        1743.949         -53.524          44.007                                                            
G15  24985496.101      115350.420       -2086.311          39.220                                                            
G20  20603123.355       85705.553       -1561.928          18.234                                                            
G24  22860855.859      162218.342       -2460.016          35.569    22860848.664      250733.233       -1837.043          29.227
G25  21120602.011     -189825.946        2709.473          25.291    21120540.854     -372671.992        2021.028          18.602
G31  23135654.320     -179698.573        3225.731          36.970                                                            
G32  21799750.347     -276742.505        1703.260           7.911                                                            
R02  20546255.723     -196195.805        3262.071          21.660                                                            
R12  19201304.613      -87218.403        1228.203          32.020                                                            
R11  20567589.554      142108.227       -2409.047          35.893                                                            
R01  20022927.816       44088.387        -659.761          35.532                                                            
> 2019 11 12 08 00  5.0000924  0 12
G10  20289140.221      -56696.409         821.162          38.984    20289136.323      -88224.173         613.209          40.109
G12  21561939.980        1798.380         -54.431          43.820                                                            
G15  24985894.825      117437.066       -2086.646          39.220                                                            
G20  20603433.340       87269.658       -1555.112          15.487                                                            
G24  22861323.835      164678.601       -2460.259          35.672    22861316.940      252570.445       -1837.212          28.839
G25  21120062.685     -192534.037        2708.153          24.133    21120028.509     -374695.147        2029.758          18.742
G31  23135039.445     -182923.769        3225.197          36.014                                                            
G32  21799310.252     -278445.005        1694.889          12.833                                                            
R02  20545558.106     -199457.141        3260.466          21.790                                                            
R12  19201092.360      -88445.480        1227.076          32.106                                                            
R11  20568052.434      144517.973       -2409.746          35.822                                                            
R01  20023042.336       44748.935        -660.548          34.927                                                            
> 2019 11 12 08 00  6.0000924  0 12
G10  20288987.926      -57516.926         820.518          39.043    20288980.431      -88836.874         612.701          40.195
G12  21561951.372        1853.566         -55.186          44.022                                                            
G15  24986302.842      119523.805       -2086.739          38.735                                                            
G20  20603721.440       88828.728       -1562.487          15.086                                                            
G24  22861795.708      167139.062       -2460.461          36.622    22861785.515      254407.766       -1837.321          28.685
G25  21119535.050     -195242.236        2707.673          24.667    21119509.868     -376714.657        2020.559          18.345
G31  23134426.070     -186148.637        3224.868          34.985                                                            
G32  21798872.854     -280151.870        1711.959          11.440                                                            
R02  20544989.700     -202715.383        3258.767          22.866                                                            
R12  19200858.822      -89671.657        1226.178          32.350                                                            
R11  20568494.627      146928.212       -2410.240          34.831                                                            
R01  20023150.561       45410.133        -661.198          33.956                                                            
> 2019 11 12 08 00  7.0000924  0 13
G10  20288828.436      -58336.607         819.681          38.511    20288824.239      -89448.996         612.122          40.421
G12  21561960.665        1909.611         -56.045          43.953                                                            
G15  24986702.166      121610.868       -2087.063          38.215                                                            
G20  20604018.535       90398.544       -1566.229          14.054                                                            
G24  22862263.384      169599.670       -2460.608          37.296    22862253.191      256245.234       -1837.469          28.227
G25  21119023.604     -197950.175        2707.939          25.469    21118998.721     -378736.186        2022.735          19.245
G31  23133815.992     -189372.986        3224.350          36.525                                                            
G32  21798444.451     -281855.705        1703.903          11.374                                                            
R02  20544394.012     -205972.891        3254.358          22.751                                                            
R13  22443145.434     -284667.965        4348.846          26.773                                                            
R12  19200621.986      -90896.888        1225.230          31.918                                                            
R11  20568947.614      149339.137       -2410.925          33.782                                                            
R01  20023286.367       46072.056        -661.923          33.857                                                            
> 2019 11 12 08 00  8.0000924  0 11
G10  20288674.343      -59155.471         818.864          38.325    20288668.647      -90060.455         611.459          40.286
G12  21561971.458        1966.566         -56.955          44.314                                                            
G15  24987098.791      123698.194       -2087.327          36.601                                                            
G24  22862734.059      172060.595       -2460.926          37.413    22862721.467      258082.957       -1837.722          27.771
G25  21118492.072     -200656.789        2706.614          24.152    21118486.676     -380756.336        2018.085          19.605
G31  23133201.118     -192596.888        3223.902          36.751                                                            
G32  21798003.156     -283556.385        1702.275          13.999                                                            
R02  20543786.333     -209230.139        3254.115          23.278                                                            
R12  19200400.439      -92121.061        1224.173          31.515                                                            
R11  20569385.611      151750.831       -2411.693          32.918                                                            
R01  20023397.291       46734.794        -662.739          33.180                                                            
> 2019 11 12 08 00  9.0000924  0 11
G10  20288517.552      -59973.636         818.166          38.227    20288512.755      -90671.421         610.966          40.203
G12  21561982.550        2024.287         -57.721          44.125                                                            
G15  24987497.515      125785.626       -2087.431          35.158                                                            
G24  22863200.835      174521.598       -2461.003          37.415    22863189.443      259920.711       -1837.754          27.334
G25  21117985.423     -203362.208        2705.621          25.141    21117976.429     -382775.777        2022.207          19.794
G31  23132589.541     -195820.391        3223.503          36.594                                                            
G32  21797566.659     -285270.137        1705.343          14.846                                                            
R02  20543157.968     -212487.096        3257.774          22.109                                                            
R12  19200177.694      -93344.391        1223.330          31.030                                                            
R11  20569836.798      154163.009       -2412.178          33.122                                                            
R01  20023523.803       47398.131        -663.337          32.636                                                            
> 2019 11 12 08 00 10.0000924  0 11
G10  20288363.458      -60791.101         817.464          38.177    20288357.462      -91281.868         610.447          40.309
G12  21561995.141        2082.684         -58.397          44.357                                                            
G15  24987903.434      127873.280       -2087.654          33.482                                                            
G24  22863670.310      176982.682       -2461.084          37.727    22863659.818      261758.607       -1837.896          27.944
G25  21117470.979     -206067.758        2705.550          26.379    21117458.088     -384796.095        2019.264          21.034
G31  23131971.969     -199043.527        3223.136          37.245                                                            
G32  21797137.656     -286982.281        1704.631          15.091                                                            
R02  20542557.483     -215742.691        3258.870          21.307                                                            
R12  19199936.960      -94566.944        1222.553          30.621                                                            
R11  20570295.181      156575.713       -2412.704          32.951                                                            
R01  20023650.615       48062.094        -663.963          32.624                                                            
> 2019 11 12 08 00 11.0000924  0 11
G10  20288205.468      -61607.795         816.695          37.936    20288201.870      -91891.753         609.886          40.252
G12  21562003.536        2141.938         -59.254          44.027                                                            
G15  24988306.655      129961.070       -2087.790          33.072                                                            
G24  22864136.188      179443.892       -2461.210          37.582    22864126.894      263596.428       -1837.821          28.108
G25  21116955.636     -208772.466        2704.707          27.141    21116944.843     -386815.830        2019.899          20.200
G31  23131358.594     -202266.241        3222.714          37.329                                                            
G32  21796697.860     -288695.373        1703.546          14.832                                                            
R02  20541961.796     -218999.224        3253.689          22.953                                                            
R12  19199708.219      -95788.430        1221.486          29.714                                                            
R11  20570748.467      158988.940       -2413.228          33.460                                                            
R01  20023765.136       48726.757        -664.663          32.836                                                            
> 2019 11 12 08 00 12.0000924  0 11
G10  20288052.873      -62423.780         815.985          38.481    20288046.877      -92501.090         609.337          40.163
G12  21562017.326        2202.024         -60.085          44.128                                                            
G15  24988720.968      132049.163       -2088.094          31.249                                                            
G24  22864606.562      181905.362       -2461.470          37.271    22864594.870      265434.603       -1838.175          28.486
G25  21116440.892     -211476.507        2704.041          28.688    21116426.802     -388836.120        2019.953          20.639
G31  23130748.816     -205488.556        3222.315          37.852                                                            
G32  21796271.255     -290390.074        1703.380          15.405                                                            
R02  20541349.620     -222255.178        3254.507          22.929                                                            
R12  19199481.875      -97009.033        1220.603          29.351                                                            
R11  20571204.152      161402.892       -2413.952          33.614                                                            
R01  20023891.348       49392.187        -665.430          32.145                                                            
> 2019 11 12 08 00 13.0000924  0 11
G10  20287898.480      -63238.940         815.160          38.883    20287891.885      -93109.809         608.719          40.212
G12  21562027.219        2262.895         -60.872          44.014                                                            
G15  24989131.085      134137.401       -2088.237          29.892                                                            
G24  22865073.939      184367.012       -2461.649          37.229    22865062.846      267272.791       -1838.188          29.096
G25  21115929.446     -214180.407        2703.900          29.631    21115913.557     -390854.904        2020.581          19.634
G31  23130133.642     -208710.412        3221.856          38.149                                                            
G32  21795836.856     -292096.485        1704.943          15.848                                                            
R02  20540755.731     -225510.731        3257.042          23.149                                                            
R12  19199247.138      -98228.747        1219.714          28.540                                                            
R11  20571651.442      163817.381       -2414.489          33.080                                                            
R01  20023996.276       50058.346        -666.160          31.784                                                            
> 2019 11 12 08 00 14.0000924  0 11
G10  20287742.588      -64053.405         814.465          38.496    20287736.292      -93718.017         608.208          39.774
G12  21562038.911        2324.565         -61.670          43.452                                                            
G15  24989529.209      136225.823       -2088.422          28.391                                                            
G24  22865540.416      186828.757       -2461.745          36.851    22865532.921      269111.107       -1838.316          29.266
G25  21115416.202     -216883.207        2702.800          30.066    21115397.614     -392876.262        2019.134          20.290
G31  23129520.866     -211931.872        3221.460          37.597                                                            
G32  21795398.859     -293801.471        1699.299          14.837                                                            
R02  20540117.473     -228765.911        3254.085          22.563                                                            
R12  19199006.105      -99447.563        1218.816          27.520                                                            
R11  20572107.726      166232.477       -2415.095          33.011                                                            
R01  20024139.277       50725.091        -666.745          31.563                                                            
> 2019 11 12 08 00 15.0000924  0 11
G10  20287586.996      -64868.377         814.971          38.613    20287581.300      -94326.604         608.587          39.964
G12  21562049.104        2385.799         -61.234          43.428                                                            
G15  24989927.333      138313.273       -2087.451          26.597                                                            
G24  22866011.690      189289.429       -2460.672          37.056    22866001.197      270948.631       -1837.524          29.232
G25  21114906.255     -219586.614        2703.407          31.001    21114886.168     -394895.000        2020.666          21.025
G31  23128907.790     -215154.210        3222.338          37.974                                                            
G32  21794965.359     -295498.704        1697.621          11.993                                                            
R02  20539474.718     -232021.776        3252.609          22.345                                                            
R12  19198782.459     -100666.708        1219.145          27.583                                                            
R11  20572558.314      168646.901       -2414.425          33.379                                                            
R01  20024276.582       51391.290        -666.198          32.865                                                            
> 2019 11 12 08 00 16.0000924  0 11
G10  20287432.303      -65682.375         813.999          38.894    20287426.607      -94934.455         607.852          40.018
G12  21562059.897        2448.062         -62.262          43.479                                                            
G15  24990328.156      140401.083       -2087.809          28.031                                                            
G24  22866482.364      191750.561       -2461.132          37.608    22866468.273      272786.490       -1837.859          29.052
G25  21114391.811     -222289.146        2702.531          30.922    21114369.026     -396915.243        2022.003          21.579
G31  23128293.815     -218375.880        3221.670          38.241                                                            
G32  21794533.059     -297196.623        1706.432          15.898                                                            
R02  20538872.434     -235277.450        3257.412          22.111                                                            
R12  19198554.018     -101884.599        1217.891          27.110                                                            
R11  20573008.303      171062.188       -2415.287          33.319                                                            
R01  20024401.595       52058.485        -667.195          33.350                                                            
> 2019 11 12 08 00 17.0000924  0 11
G10  20287277.310      -66495.169         812.794          38.846    20287271.914      -95541.394         606.938          40.050
G12  21562073.687        2511.580         -63.518          43.676                                                            
G15  24990721.184      142489.612       -2088.529          29.166                                                            
G24  22866948.241      194212.224       -2461.663          37.787    22866936.849      274624.742       -1838.252          28.588
G25  21113876.767     -224990.542        2701.396          31.133    21113857.581     -398931.979        2013.011          20.581
G31  23127683.138     -221596.658        3220.777          38.299                                                            
G32  21794095.662     -298896.481        1704.659          13.544                                                            
R02  20538304.628     -238532.205        3255.260          22.341                                                            
R12  19198321.079     -103101.153        1216.555          27.062                                                            
R11  20573470.882      173478.536       -2416.348          33.612                                                            
R01  20024525.709       52726.791        -668.306          33.642                                                            
> 2019 11 12 08 00 18.0000924  0 11
G10  20287122.018      -67306.921         811.752          39.009    20287117.221      -96147.561         606.167          39.945
G12  21562086.278        2576.233         -64.653          43.393                                                            
G15  24991107.017      144578.607       -2088.996          30.286                                                            
G24  22867416.517      196674.393       -2462.169          37.066    22867405.125      276463.364       -1838.622          28.682
G25  21113365.921     -227690.986        2700.445          32.311    21113339.239     -400954.263        2014.413          19.997
G31  23127072.761     -224816.741        3220.083          38.274                                                            
G32  21793667.258     -300612.900        1704.276          16.584                                                            
R02  20537686.456     -241785.957        3254.970          22.299                                                            
R12  19198098.933     -104316.495        1215.341          27.309                                                            
R11  20573930.464      175895.754       -2417.218          33.784                                                            
R01  20024642.628       53396.070        -669.279          33.982                                                            
> 2019 11 12 08 00 19.0000924  0 11
G10  20286969.124      -68117.796         810.875          39.114    20286963.128      -96753.103         605.542          39.891
G12  21562096.171        2641.720         -65.486          43.102                                                            
G15  24991496.147      146667.853       -2089.246          31.896                                                            
G24  22867883.294      199136.790       -2462.397          36.949    22867874.600      278302.212       -1838.847          28.731
G25  21112854.475     -230390.718        2699.732          33.190    21112831.391     -402975.524        2011.795          19.732
G31  23126458.486     -228036.382        3219.641          38.519                                                            
G32  21793234.358     -302318.855        1699.093          15.540                                                            
R02  20537093.166     -245039.686        3253.666          22.476                                                            
R12  19197881.583     -105530.856        1214.361          26.944                                                            
R11  20574370.859      178313.599       -2417.844          33.691                                                            
R01  20024782.631       54066.088        -670.018          34.138                                                            
> 2019 11 12 08 00 20.0000924  0 11
G10  20286814.431      -68928.037         810.241          39.113    20286808.735      -97358.141         605.039          39.835
G12  21562112.960        2707.972         -66.253          43.131                                                            
G15  24991886.777      148757.255       -2089.401          34.062                                                            
G24  22868351.869      201599.320       -2462.531          36.520    22868342.276      280141.056       -1838.845          28.705
G25  21112341.830     -233089.818        2699.100          33.449    21112315.148     -404987.054        2021.228          20.961
G31  23125846.010     -231255.604        3219.222          38.586                                                            
G32  21792804.156     -304023.451        1697.228          16.419                                                            
R02  20536460.304     -248292.902        3253.828          22.699                                                            
R12  19197644.747     -106744.317        1213.461          27.310                                                            
R11  20574830.741      180732.031       -2418.433          33.168                                                            
R01  20024907.345       54736.771        -670.683          34.193                                                            
> 2019 11 12 08 00 21.0000924  0 11
G10  20286660.037      -69737.401         809.364          38.872    20286654.941      -97962.557         604.416          39.986
G12  21562123.453        2775.114         -67.142          43.173                                                            
G15  24992257.920      150847.004       -2089.749          34.921                                                            
G24  22868821.344      204062.102       -2462.782          36.637    22868812.650      281980.124       -1839.068          29.040
G25  21111828.585     -235788.191        2698.373          33.947    21111804.002     -407002.049        2010.369          20.286
G31  23125231.136     -234474.343        3218.739          38.718                                                            
G32  21792368.857     -305719.238        1697.626          15.863                                                            
R02  20535863.118     -251545.329        3252.088          21.930                                                            
R12  19197426.498     -107956.781        1212.464          27.593                                                            
R11  20575262.742      183151.193       -2419.161          32.344                                                            
R01  20025020.067       55408.260        -671.489          34.648                                                            
> 2019 11 12 08 00 22.0000924  0 11
G10  20286508.343      -70546.028         808.627          39.073    20286501.147      -98566.389         603.831          40.038
G12  21562136.344        2843.078         -67.963          43.095                                                            
G15  24992658.143      152936.899       -2089.896          36.280                                                            
G24  22869288.121      206525.100       -2462.998          36.964    22869280.926      283819.401       -1839.277          29.102
G25  21111315.341     -238485.967        2697.776          33.725    21111286.261     -409025.264        2018.234          21.000
G31  23124623.756     -237692.660        3218.317          38.979                                                            
G32  21791932.959     -307418.167        1690.137          15.834                                                            
R02  20535267.730     -254795.136        3250.112          20.227                                                            
R12  19197207.949     -109168.346        1211.565          27.113                                                            
R11  20575722.324      185570.972       -2419.780          32.208                                                            
R01  20025149.577       56080.468        -672.209          34.720                                                            
> 2019 11 12 08 00 23.0000924  0 11
G10  20286351.251      -71353.789         807.762          39.200    20286347.354      -99169.571         603.182          40.111
G12  21562147.136        2911.974         -68.896          42.916                                                            
G15  24993052.370      155027.105       -2090.205          37.819                                                            
G24  22869754.299      208988.327       -2463.227          36.544    22869750.101      285658.864       -1839.462          28.979
G25  21110804.194     -241182.856        2696.889          33.927    21110773.915     -411042.068        2013.008          21.092
G31  23124010.980     -240910.404        3217.744          39.032                                                            
G32  21791497.660     -309122.947        1704.287          16.434                                                            
R02  20534636.667     -258048.948        3250.117          18.624                                                            
R12  19196960.021     -110378.744        1209.685          27.290                                                            
R11  20576177.709      187991.419       -2420.447          32.369                                                            
R01  20025273.691       56753.506        -673.037          35.284                                                            
> 2019 11 12 08 00 24.0000924  0 11
G10  20286200.156      -72160.842         807.052          39.309    20286193.560      -99772.244         602.673          40.038
G12  21562159.727        2981.632         -69.658          42.969                                                            
G15  24993453.492      157117.484       -2090.380          39.017                                                            
G24  22870227.071      211451.662       -2463.335          36.433    22870218.077      287498.306       -1839.443          28.494
G25  21110291.549     -243879.192        2696.336          33.865    21110258.872     -413051.386        2010.099          20.962
G31  23123399.104     -244127.840        3217.436          39.222                                                            
G32  21791064.460     -310812.232        1703.495          14.580                                                            
R02  20533996.610     -261306.262        3252.743          17.884                                                            
R12  19196747.168     -111588.414        1209.670          27.712                                                            
R11  20576624.100      190412.376       -2420.957          32.214                                                            
R01  20025416.093       57427.171        -673.666          35.562                                                            
> 2019 11 12 08 00 25.0000924  0 11
G10  20286046.962      -72967.133         806.291          39.340    20286040.366     -100374.365         602.121          40.044
G12  21562174.417        3052.051         -70.419          43.177                                                            
G15  24993851.916      159208.026       -2090.542          40.172                                                            
G24  22870697.446      213915.163       -2463.501          36.680    22870686.653      289337.973       -1839.667          28.369
G25  21109780.103     -246574.879        2695.688          33.971    21109745.927     -415060.053        2011.603          20.785
G31  23122785.129     -247344.835        3216.995          39.248                                                            
G32  21790635.457     -312508.820        1706.219          11.926                                                            
R02  20533335.268     -264562.504        3252.869          18.436                                                            
R12  19196531.618     -112797.133        1208.719          28.178                                                            
R11  20577088.178      192833.944       -2421.568          33.442                                                            
R01  20025538.108       58101.542        -674.371          35.239                                                            
> 2019 11 12 08 00 26.0000924  0 11
G10  20285892.569      -73772.652         805.519          38.764    20285886.873     -100975.885         601.520          39.973
G12  21562187.009        3123.353         -71.302          42.868                                                            
G15  24994249.441      161298.854       -2090.828          40.639                                                            
G24  22871164.822      216378.925       -2463.762          36.663    22871155.828      291177.782       -1839.809          27.917
G25  21109268.657     -249269.861        2694.981          33.399    21109235.081     -417071.042        2010.619          20.521
G31  23122177.150     -250561.328        3216.493          39.438                                                            
G32  21790205.255     -314203.635        1696.151          12.235                                                            
R02  20532798.040     -267816.163        3246.199          19.481                                                            
R12  19196295.681     -114004.783        1207.650          28.302                                                            
R11  20577542.364      195256.224       -2422.279          33.155                                                            
R01  20025674.514       58776.632        -675.090          35.653                                                            
> 2019 11 12 08 00 27.0000924  0 11
G10  20285739.974      -74577.323         804.671          39.077    20285733.979     -101576.754         600.869          39.958
G12  21562200.799        3195.579         -72.226          42.731                                                            
G15  24994648.165      163389.978       -2091.123          41.278                                                            
G24  22871634.897      218842.896       -2463.971          36.298    22871624.704      293017.767       -1839.985          27.730
G25  21108747.918     -251964.013        2694.152          33.081    21108720.337     -419080.297        2011.160          20.558
G31  23121562.276     -253777.406        3216.078          39.251                                                            
G32  21789769.956     -315902.233        1695.263          15.003                                                            
R02  20532170.274     -271066.483        3247.670          19.781                                                            
R12  19196062.143     -115211.548        1206.765          28.090                                                            
R11  20578005.843      197679.117       -2422.894          33.835                                                            
R01  20025794.131       59452.545        -675.913          35.645                                                            
> 2019 11 12 08 00 28.0000924  0 11
G10  20285588.279      -75381.188         803.866          39.020    20285580.785     -102177.059         600.305          39.888
G12  21562216.088        3268.612         -73.033          42.507                                                            
G15  24995041.193      165481.311       -2091.333          41.919                                                            
G24  22872101.973      221307.110       -2464.213          35.403    22872095.078      294857.944       -1840.532          28.070
G25  21108241.269     -254657.595        2693.582          32.832    21108209.491     -421091.141        2010.270          21.060
G31  23120950.099     -256992.938        3215.532          39.553                                                            
G32  21789334.957     -317598.857        1700.254          17.544                                                            
R02  20531591.675     -274316.618        3247.878          20.664                                                            
R12  19195838.198     -116417.151        1205.603          28.386                                                            
R11  20578456.431      200102.690       -2423.572          34.587                                                            
R01  20025917.346       60129.130        -676.584          35.269                                                            
> 2019 11 12 08 00 29.0000924  0 11
G10  20285432.088      -76184.401         803.213          38.831    20285427.890     -102776.848         599.789          40.074
G12  21562225.682        3342.389         -73.777          41.961                                                            
G15  24995437.519      167572.817       -2091.507          42.091                                                            
G24  22872568.151      223771.387       -2464.278          35.120    22872563.354      296698.146       -1840.202          28.631
G25  21107730.123     -257350.566        2692.971          32.607    21107694.747     -423102.148        2010.463          20.357
G31  23120340.621     -260208.170        3215.232          39.581                                                            
G32  21788904.455     -319295.408        1702.316          17.302                                                            
R02  20530978.000     -277566.521        3251.875          19.952                                                            
R12  19195612.154     -117622.154        1205.003          27.634                                                            
R11  20578911.216      202526.705       -2424.015          34.338                                                            
R01  20026043.559       60806.359        -677.230          35.177                                                            
> 2019 11 12 08 00 30.0000924  0 11
G10  20285281.892      -76986.816         802.414          39.514    20285275.296     -103376.058         599.209          40.148
G12  21562245.168        3416.989         -74.601          42.308                                                            
G15  24995836.243      169664.515       -2091.698          42.178                                                            
G24  22873033.129      226235.857       -2464.470          34.665    22873033.129      298538.518       -1840.371          28.492
G25  21107216.878     -260042.842        2692.276          32.709    21107183.901     -425109.697        2011.306          20.963
G31  23119726.347     -263422.939        3214.769          39.583                                                            
G32  21788467.058     -320992.995        1702.744          16.510                                                            
R02  20530334.945     -280816.370        3251.990          19.749                                                            
R12  19195381.014     -118826.153        1203.999          28.056                                                            
R11  20579361.504      204951.415       -2424.710          34.384                                                            
R01  20026176.367       61484.338        -677.979          35.099                                                            
> 2019 11 12 08 00 31.0000924  0 11
G10  20285131.396      -77788.477         801.662          39.193    20285123.002     -103974.696         598.638          40.204
G12  21562259.858        3492.427         -75.437          42.311                                                            
G15  24996236.166      171756.458       -2091.943          42.246                                                            
G24  22873503.503      228700.536       -2464.679          34.108    22873500.805      300379.026       -1840.508          28.519
G25  21106708.730     -262734.420        2691.578          32.563    21106668.857     -427119.551        2009.979          20.610
G31  23119118.068     -266637.329        3214.390          39.521                                                            
G32  21788030.261     -322698.578        1695.711          16.613                                                            
R02  20529745.853     -284065.778        3247.572          19.449                                                            
R12  19195158.568     -120029.137        1202.985          28.696                                                            
R11  20579818.688      207376.693       -2425.278          34.517                                                            
R01  20026300.481       62163.005        -678.667          34.902                                                            
> 2019 11 12 08 00 32.0000924  0 11
G10  20284977.003      -78589.358         800.881          39.093    20284970.707     -104572.784         598.088          40.163
G12  21562273.049        3568.702         -76.276          42.188                                                            
G15  24996634.890      173848.598       -2092.140          42.646                                                            
G24  22873966.383      231165.395       -2464.859          33.707    22873971.479      302219.659       -1840.633          28.433
G25  21106201.181     -265425.362        2690.942          32.479    21106151.715     -429126.978        2009.252          20.093
G31  23118504.692     -269851.211        3213.882          39.464                                                            
G32  21787597.360     -324397.902        1698.129          14.591                                                            
R02  20529148.067     -287316.095        3249.668          19.784                                                            
R12  19194932.525     -121231.154        1202.017          28.396                                                            
R11  20580276.771      209802.650       -2425.957          34.878                                                            
R01  20026422.196       62842.397        -679.392          34.341                                                            
> 2019 11 12 08 00 33.0000924  0 11
G10  20284825.907      -79389.449         800.091          39.133    20284818.113     -105170.239         597.456          40.250
G12  21562288.039        3645.802         -77.100          41.931                                                            
G15  24997031.515      175940.977       -2092.379          43.022                                                            
G24  22874437.656      233630.477       -2465.082          33.484    22874440.654      304060.550       -1840.891          28.719
G25  21105689.735     -268115.586        2690.224          31.981    21105642.967     -431135.826        2001.852          19.730
G31  23117893.715     -273064.687        3213.476          39.326                                                            
G32  21787168.357     -326097.637        1700.466          17.528                                                            
R02  20528537.089     -290569.645        3246.186          17.690                                                            
R12  19194699.586     -122432.166        1201.012          28.125                                                            
R11  20580725.260      212229.207       -2426.558          35.745                                                            
R01  20026546.310       63522.536        -680.139          33.757                                                            
> 2019 11 12 08 00 34.0000924  0 11
G10  20284672.413      -80188.943         799.494          38.526    20284666.118     -105767.271         597.031          39.903
G12  21562297.932        3723.547         -77.744          41.365                                                            
G15  24997428.141      178033.467       -2092.490          42.984                                                            
G24  22874903.834      236095.645       -2465.168          33.975    22874908.630      305901.328       -1840.778          27.716
G25  21105176.191     -270805.364        2689.778          31.207    21105133.020     -433146.514        2001.721          20.267
G31  23117280.640     -276277.889        3213.202          39.194                                                            
G32  21786733.358     -327797.338        1705.365          18.138                                                            
R02  20527895.234     -293812.387        3247.938          18.746                                                            
R12  19194464.549     -123632.380        1200.213          27.372                                                            
R11  20581181.844      214656.266       -2427.059          36.032                                                            
R01  20026671.924       64203.247        -680.711          32.984                                                            
> 2019 11 12 08 00 35.0000924  0 11
G10  20284521.618      -80989.064         800.121          38.614    20284513.823     -106364.747         597.477          40.261
G12  21562316.819        3800.754         -77.207          41.570                                                            
G15  24997826.265      180124.736       -2091.268          43.089                                                            
G24  22875375.107      238559.567       -2463.923          34.695    22875377.805      307741.241       -1839.913          27.720
G25  21104669.841     -273495.720        2690.356          31.054    21104619.476     -435155.473        2004.759          19.475
G31  23116670.562     -279492.041        3214.152          39.865                                                            
G32  21786298.359     -329498.089        1703.625          18.018                                                            
R02  20527267.768     -297056.838        3242.782          19.003                                                            
R12  19194254.094     -124833.225        1200.846          27.974                                                            
R11  20581640.827      217082.468       -2426.202          37.189                                                            
R01  20026800.834       64883.225        -679.978          32.731                                                            
> 2019 11 12 08 00 36.0000924  0 11
G10  20284369.323      -81788.138         799.075          38.704    20284361.529     -106961.500         596.753          40.143
G12  21562329.110        3878.994         -78.240          41.269                                                            
G15  24998221.691      182216.500       -2091.765          43.157                                                            
G24  22875843.083      241023.847       -2464.280          34.557    22875846.381      309581.482       -1840.242          27.586
G25  21104157.496     -276185.312        2689.592          30.545    21104108.929     -437158.989        2007.984          20.343
G31  23116057.786     -282705.528        3213.487          39.927                                                            
G32  21785863.061     -331198.344        1700.595          16.460                                                            
R02  20526663.387     -300305.647        3244.155          19.019                                                            
R12  19194030.749     -126032.927        1199.701          28.484                                                            
R11  20582096.211      219509.474       -2427.006          37.803                                                            
R01  20026923.150       65564.178        -680.953          32.133                                                            
> 2019 11 12 08 00 37.0000924  0 11
G10  20284217.628      -82586.134         797.995          38.511    20284209.834     -107557.355         595.855          40.093
G12  21562347.098        3958.501         -79.507          41.284                                                            
G15  24998622.214      184308.901       -2092.401          43.224                                                            
G24  22876315.256      243488.758       -2464.912          34.332    22876315.556      311422.177       -1840.694          27.508
G25  21103647.249     -278873.659        2688.346          29.397    21103594.486     -439166.484        2012.365          20.418
G31  23115446.509     -285918.146        3212.618          40.046                                                            
G32  21785429.861     -332905.093        1696.441          17.607                                                            
R02  20526028.426     -303552.964        3246.722          19.873                                                            
R12  19193808.603     -127231.115        1198.188          28.264                                                            
R11  20582540.804      221937.591       -2428.117          37.832                                                            
R01  20027059.855       66246.211        -682.033          32.042                                                            
> 2019 11 12 08 00 38.0000924  0 11
G10  20284061.736      -83383.047         796.913          38.622    20284058.439     -108152.474         595.119          40.382
G12  21562362.687        4038.999         -80.498          41.633                                                            
G15  24999020.638      186401.698       -2092.797          43.390                                                            
G24  22876784.731      245954.037       -2465.278          33.423    22876785.931      313263.163       -1840.986          28.585
G25  21103136.403     -281561.264        2687.606          29.254    21103088.136     -441181.493        2010.417          20.306
G31  23114836.432     -289130.101        3211.955          39.885                                                            
G32  21784999.359     -334604.541        1692.147          17.682                                                            
R02  20525462.418     -306803.527        3254.487          20.135                                                            
R12  19193578.662     -128428.122        1197.007          28.124                                                            
R11  20582993.790      224366.551       -2428.960          37.369                                                            
R01  20027168.680       66929.227        -683.016          31.443                                                            
> 2019 11 12 08 00 39.0000924  0 11
G10  20283912.440      -84179.160         796.113          39.127    20283906.444     -108746.984         594.510          40.300
G12  21562374.079        4120.463         -81.464          41.786                                                            
G15  24999415.465      188494.842       -2093.144          43.320                                                            
G24  22877249.710      248419.587       -2465.551          32.950    22877255.705      315104.306       -1841.143          28.896
G25  21102626.156     -284248.096        2686.832          28.330    21102572.493     -443187.911        2005.894          19.811
G31  23114220.958     -292341.538        3211.437          39.408                                                            
G32  21784570.356     -336303.776        1695.970          17.614                                                            
R02  20524860.135     -310055.180        3252.591          18.947                                                            
R12  19193353.518     -129624.161        1196.039          28.118                                                            
R11  20583447.376      226796.163       -2429.611          37.230                                                            
R01  20027315.578       67612.919        -683.692          30.996                                                            
> 2019 11 12 08 00 40.0000924  0 11
G10  20283761.044      -84974.402         795.242          38.967    20283755.348     -109340.846         593.863          40.142
G12  21562394.765        4202.754         -82.291          41.926                                                            
G15  24999813.289      190588.207       -2093.365          43.280                                                            
G24  22877714.088      250885.429       -2465.841          31.834    22877724.881      316945.613       -1841.307          29.266
G25  21102119.806     -286934.143        2686.047          28.117    21102064.645     -445199.170        2002.982          20.292
G31  23113610.880     -295552.557        3211.019          39.383                                                            
G32  21784137.156     -338002.817        1697.505          17.076                                                            
R02  20524224.275     -313309.849        3247.576          18.778                                                            
R12  19193171.544     -130819.187        1195.025          28.667                                                            
R11  20583899.463      229226.452       -2430.289          37.329                                                            
R01  20027446.887       68297.548        -684.629          30.946                                                            
> 2019 11 12 08 00 41.0000924  0 11
G10  20283611.448      -85768.885         794.483          39.035    20283604.553     -109934.132         593.286          40.170
G12  21562409.455        4285.907         -83.153          42.113                                                            
G15  25000210.215      192681.860       -2093.653          43.050                                                            
G24  22878183.263      253351.437       -2466.008          31.072    22878194.356      318787.124       -1841.511          29.297
G25  21101610.159     -289619.505        2685.362          27.809    21101549.901     -447206.866        2005.299          20.155
G31  23113000.503     -298763.057        3210.500          39.416                                                            
G32  21783701.557     -339701.737        1701.520          15.863                                                            
R02  20523642.078     -316555.887        3242.912          18.101                                                            
R12  19192930.511     -132013.311        1194.124          29.239                                                            
R11  20584362.942      231657.340       -2430.888          37.549                                                            
R01  20027561.708       68982.805        -685.257          30.193                                                            
> 2019 11 12 08 00 42.0000924  0 11
G10  20283456.755      -86562.649         793.764          39.144    20283453.158     -110526.896         592.764          40.056
G12  21562428.941        4369.834         -83.926          42.422                                                            
G15  25000611.037      194775.668       -2093.808          43.067                                                            
G24  22878653.038      255817.585       -2466.148          30.492    22878663.231      320628.758       -1841.635          28.629
G25  21101104.409     -292304.247        2684.742          27.602    21101043.252     -449214.306        2009.466          20.111
G31  23112391.025     -301973.176        3210.118          39.801                                                            
G32  21783265.359     -341383.937        1696.350          17.012                                                            
R02  20523028.703     -319797.714        3241.354          18.902                                                            
R12  19192695.174     -133206.520        1193.210          29.250                                                            
R11  20584823.123      234088.785       -2431.445          37.970                                                            
R01  20027678.926       69668.749        -685.944          29.859                                                            
> 2019 11 12 08 00 43.0000924  0 11
G10  20283306.259      -87355.680         793.031          39.140    20283302.062     -111119.089         592.193          40.119
G12  21562441.532        4454.554         -84.720          42.658                                                            
G15  25001010.960      196869.648       -2093.980          42.989                                                            
G24  22879123.712      258283.950       -2466.366          30.416    22879132.706      322470.453       -1841.695          27.997
G25  21100592.364     -294988.330        2684.083          27.398    21100529.707     -451223.466        1997.445          19.587
G31  23111778.848     -305182.917        3209.741          39.436                                                            
G32  21782835.157     -343082.447        1700.822          17.563                                                            
R02  20522377.254     -323039.802        3244.179          18.225                                                            
R12  19192474.227     -134398.845        1192.325          29.600                                                            
R11  20585277.909      236520.828       -2432.043          37.876                                                            
R01  20027801.542       70355.351        -686.602          29.649                                                            
> 2019 11 12 08 00 44.0000924  0 11
G10  20283156.063      -88147.866         792.186          39.115    20283151.267     -111710.660         591.572          40.196
G12  21562459.820        4540.149         -85.595          43.124                                                            
G15  25001405.787      198963.899       -2094.251          42.760                                                            
G24  22879591.388      260750.479       -2466.529          29.802    22879601.282      324312.396       -1841.943          28.137
G25  21100088.713     -297671.697        2683.367          26.310    21100022.458     -453222.636        2000.846          19.578
G31  23111167.572     -308392.141        3209.224          39.529                                                            
G32  21782405.554     -344780.509        1701.247          17.531                                                            
R02  20521860.711     -326283.955        3248.807          20.884                                                            
R12  19192265.871     -135590.047        1191.202          29.918                                                            
R11  20585721.901      238953.593       -2432.765          37.703                                                            
R01  20027933.150       71042.791        -687.440          29.741                                                            
> 2019 11 12 08 00 45.0000924  0 11
G10  20283005.268      -88939.397         791.531          38.853    20283000.771     -112301.714         591.054          40.152
G12  21562479.006        4626.489         -86.340          43.254                                                            
G15  25001807.809      201058.327       -2094.429          42.688                                                            
G24  22880057.566      263217.139       -2466.660          29.759    22880071.356      326154.364       -1841.968          28.349
G25  21099580.265     -300354.409        2682.711          25.161    21099504.717     -455221.938        2007.379          19.711
G31  23110555.995     -311601.082        3208.940          39.086                                                            
G32  21781970.556     -346478.898        1701.709          16.680                                                            
R02  20521248.235     -329528.210        3246.681          20.776                                                            
R12  19192041.326     -136780.556        1190.509          29.791                                                            
R11  20586184.181      241386.874       -2433.281          37.757                                                            
R01  20028063.260       71730.807        -688.016          30.579                                                            
> 2019 11 12 08 00 46.0000924  0 11
G10  20282853.273      -89730.072         790.675          38.490    20282849.975     -112892.181         590.467          40.020
G12  21562496.394        4713.721         -87.232          43.324                                                            
G15  25002203.235      203152.996       -2094.669          42.653                                                            
G24  22880528.839      265684.083       -2466.944          30.654    22880541.431      327996.561       -1842.198          28.728
G25  21099076.014     -303036.517        2682.108          25.354    21099001.965     -457228.568        2000.246          19.119
G31  23109945.318     -314809.445        3208.363          39.250                                                            
G32  21781536.756     -348185.848        1697.931          17.522                                                            
R02  20520611.776     -332768.564        3241.404          19.667                                                            
R12  19191812.884     -137969.919        1189.363          28.645                                                            
R11  20586635.369      243820.835       -2433.962          37.632                                                            
R01  20028193.070       72419.636        -688.829          31.320                                                            
> 2019 11 12 08 00 47.0000924  0 11
G10  20282702.477      -90520.047         789.975          38.657    20282700.079     -113482.091         589.909          40.159
G12  21562511.984        4801.715         -87.994          43.354                                                            
G15  25002604.957      205247.859       -2094.862          42.414                                                            
G24  22881000.413      268151.074       -2466.991          30.809    22881010.606      329838.847       -1842.536          27.918
G25  21098573.262     -305718.008        2681.491          24.764    21098489.620     -459230.523        2001.008          19.519
G31  23109336.739     -318017.438        3207.993          39.312                                                            
G32  21781106.554     -349883.909        1697.453          18.608                                                            
R02  20520005.596     -336011.763        3238.256          20.154                                                            
R12  19191571.551     -139158.466        1188.547          29.012                                                            
R11  20587086.257      246255.288       -2434.453          37.396                                                            
R01  20028332.174       73109.087        -689.452          32.386                                                            
> 2019 11 12 08 00 48.0000924  0 12
G10  20282556.778      -91309.245         789.198          38.643    20282549.883     -114071.427         589.337          40.246
G12  21562529.372        4890.524         -88.809          43.338                                                            
G15  25003000.383      207342.956       -2095.098          42.031                                                            
G24  22881471.687      270618.333       -2467.260          31.669    22881479.781      331681.284       -1842.437          28.249
G25  21098058.218     -308398.644        2680.636          25.517    21097981.771     -461227.946        2000.158          18.679
G31  23108726.661     -321224.979        3207.541          39.229                                                            
G32  21780676.951     -351581.792        1699.492          17.552                                                            
R02  20519399.116     -339254.029        3242.531          20.689                                                            
R13  22409823.802     -462615.690        4332.350          26.919                                                            
R12  19191356.001     -140345.996        1187.529          29.035                                                            
R11  20587536.245      248690.421       -2435.133          37.078                                                            
R01  20028464.383       73799.302        -690.215          32.528                                                            
> 2019 11 12 08 00 49.0000924  0 12
G10  20282404.484      -92097.775         788.530          38.737    20282399.987     -114660.236         588.808          40.318
G12  21562544.361        4980.119         -89.595          43.550                                                            
G15  25003397.608      209438.216       -2095.259          41.763                                                            
G24  22881941.162      273085.679       -2467.346          32.061    22881949.856      333523.742       -1842.457          28.186
G25  21097552.768     -311078.749        2680.106          24.870    21097466.428     -463229.692        1999.768          19.146
G31  23108114.185     -324432.180        3207.201          39.506                                                            
G32  21780237.455     -353279.601        1699.066          17.273                                                            
R02  20518800.730     -342496.946        3251.773          20.712                                                            
R13  22409029.352     -466946.077        4330.387          26.735                                                            
R12  19191124.261     -141532.666        1186.670          28.738                                                            
R11  20587988.632      251126.094       -2435.674          36.741                                                            
R01  20028586.998       74490.132        -690.829          32.790                                                            
> 2019 11 12 08 00 50.0000924  0 11
G10  20282257.285      -92885.424         787.649          38.928    20282250.090     -115248.460         588.224          40.055
G12  21562565.047        5070.515         -90.396          43.737                                                            
G15  25003800.229      211533.674       -2095.458          41.794                                                            
G24  22882412.136      275553.188       -2467.509          31.951    22882419.930      335366.422       -1842.681          28.515
G25  21097040.123     -313758.201        2679.452          24.210    21096961.877     -465230.483        1998.970          19.423
G31  23107504.108     -327638.975        3206.795          39.483                                                            
G32  21779802.457     -354977.025        1699.532          16.335                                                            
R02  20518183.457     -345747.471        3246.048          19.922                                                            
R12  19190902.115     -142718.440        1185.774          28.907                                                            
R11  20588454.510      253562.348       -2436.254          37.560                                                            
R01  20028718.607       75181.744        -691.613          33.252                                                            
> 2019 11 12 08 00 51.0000924  0 11
G10  20282107.989      -93672.503         787.079          38.089    20282099.894     -115836.172         587.711          40.130
G12  21562580.936        5161.707         -91.192          43.652                                                            
G15  25004199.853      213629.317       -2095.643          41.558                                                            
G24  22882882.510      278020.879       -2467.691          31.873    22882886.108      337209.123       -1842.701          28.262
G25  21096535.572     -316437.048        2678.847          24.990    21096451.930     -467230.991        2003.814          19.150
G31  23106894.930     -330845.327        3206.352          39.261                                                            
G32  21779370.156     -356680.480        1695.871          15.974                                                            
R02  20517599.162     -348992.791        3239.145          17.466                                                            
R12  19190690.162     -143903.289        1184.849          29.922                                                            
R11  20588905.697      255999.196       -2436.848          37.107                                                            
R01  20028843.620       75873.920        -692.176          33.755                                                            
> 2019 11 12 08 00 52.0000924  0 11
G10  20281956.893      -94458.782         786.279          38.288    20281950.898     -116423.321         587.149          40.127
G12  21562598.923        5253.664         -91.956          43.725                                                            
G15  25004595.579      215725.156       -2095.839          40.827                                                            
G24  22883353.484      280488.669       -2467.790          31.989    22883356.482      339051.979       -1842.856          27.931
G25  21096031.921     -319115.246        2678.198          24.454    21095941.683     -469227.965        2000.279          18.560
G31  23106283.952     -334051.326        3205.998          39.701                                                            
G32  21778940.853     -358377.880        1702.683          16.519                                                            
R02  20517002.275     -352226.866        3235.344          16.907                                                            
R12  19190472.213     -145087.315        1184.027          29.886                                                            
R11  20589367.977      258436.599       -2437.403          37.896                                                            
R01  20028988.720       76566.890        -692.969          34.639                                                            
> 2019 11 12 08 00 53.0000924  0 11
G10  20281809.396      -95244.203         785.421          38.278    20281801.001     -117009.833         586.512          40.103
G12  21562616.911        5346.539         -92.876          43.665                                                            
G15  25004993.103      217821.275       -2096.119          40.422                                                            
G24  22883822.959      282956.735       -2468.066          32.048    22883827.456      340894.999       -1843.020          28.645
G25  21095522.274     -321792.556        2677.310          23.725    21095433.535     -471228.079        1999.507          18.916
G31  23105670.577     -337256.759        3205.434          39.198                                                            
G32  21778510.051     -360074.958        1700.105          16.880                                                            
R02  20516302.259     -355458.879        3239.769          15.896                                                            
R12  19190247.668     -146270.265        1182.949          29.672                                                            
R11  20589820.664      260874.655       -2438.056          37.610                                                            
R01  20029112.534       77260.611        -693.722          34.636                                                            
> 2019 11 12 08 00 54.0000924  0 11
G10  20281656.801      -96028.837         784.634          37.660    20281651.705     -117595.818         585.985          40.164
G12  21562633.400        5440.208         -93.669          43.850                                                            
G15  25005391.827      219917.590       -2096.315          39.675                                                            
G24  22884295.432      285424.958       -2468.223          32.881    22884297.231      342738.160       -1843.161          29.182
G25  21095016.524     -324469.350        2676.794          23.425    21094923.888     -473229.213        1998.329          18.450
G31  23105060.499     -340461.833        3205.074          39.218                                                            
G32  21778077.151     -361775.764        1700.255          18.004                                                            
R02  20515690.383     -358697.740        3243.434          15.215                                                            
R12  19190030.019     -147452.186        1181.922          30.340                                                            
R11  20590282.644      263313.317       -2438.662          38.025                                                            
R01  20029251.038       77955.005        -694.393          35.207                                                            
> 2019 11 12 08 00 55.0000924  0 11
G10  20281509.903      -96812.805         783.968          37.518    20281502.708     -118181.217         585.399          40.119
G12  21562652.286        5534.694         -94.485          43.913                                                            
G15  25005790.252      222014.159       -2096.569          39.321                                                            
G24  22884764.307      287893.395       -2468.436          33.242    22884766.106      344581.507       -1843.347          28.726
G25  21094505.078     -327145.542        2676.192          23.931    21094418.138     -475227.400        1996.999          19.772
G31  23104453.420     -343666.433        3204.600          39.073                                                            
G32  21777648.148     -363472.554        1694.750          17.125                                                            
R02  20515156.153     -361942.620        3239.984          16.179                                                            
R12  19189809.072     -148633.298        1181.112          30.921                                                            
R11  20590740.427      265752.610       -2439.293          38.052                                                            
R01  20029365.559       78650.126        -695.121          34.907                                                            
> 2019 11 12 08 00 56.0000924  0 11
G10  20281363.304      -97595.900         783.095          37.750    20281353.411     -118766.007         584.790          40.175
G12  21562669.075        5630.009         -95.315          44.103                                                            
G15  25006185.678      224110.913       -2096.754          38.454                                                            
G24  22885234.682      290362.031       -2468.637          33.080    22885237.680      346424.944       -1843.437          29.232
G25  21093999.328     -329820.863        2675.321          23.714    21093905.793     -477228.460        2001.514          20.091
G31  23103843.642     -346870.585        3204.152          39.146                                                            
G32  21777217.046     -365169.223        1692.694          16.618                                                            
R02  20514571.258     -365177.394        3238.952          16.264                                                            
R12  19189604.014     -149813.433        1180.135          31.095                                                            
R11  20591201.508      268192.523       -2439.913          38.727                                                            
R01  20029504.363       79345.969        -695.843          34.459                                                            
> 2019 11 12 08 00 57.0000924  0 11
G10  20281211.909      -98378.276         782.376          37.945    20281204.714     -119350.260         584.253          39.891
G12  21562688.262        5726.134         -96.126          44.212                                                            
G15  25006581.104      226207.884       -2096.971          37.325                                                            
G24  22885702.958      292830.849       -2468.818          33.253    22885706.855      348268.494       -1843.550          30.102
G25  21093486.983     -332495.518        2674.655          23.852    21093400.942     -479225.665        1998.030          20.711
G31  23103232.965     -350074.365        3203.780          39.240                                                            
G32  21776777.251     -366864.193        1693.071          16.781                                                            
R02  20513981.566     -368416.029        3233.840          15.611                                                            
R12  19189381.268     -150992.577        1179.144          31.176                                                            
R11  20591662.888      270633.001       -2440.479          38.813                                                            
R01  20029635.072       80042.542        -696.574          34.848                                                            
> 2019 11 12 08 00 58.0000924  0 11
G10  20281062.613      -99159.982         781.706          38.155    20281056.317     -119934.013         583.753          40.014
G12  21562704.450        5823.025         -96.890          44.093                                                            
G15  25006974.432      228304.963       -2097.078          36.647                                                            
G24  22886171.233      295299.716       -2468.868          33.379    22886177.829      350112.143       -1843.649          30.634
G25  21092974.038     -335169.276        2673.525          23.323    21092887.398     -481228.842        1999.207          22.037
G31  23102624.086     -353277.740        3203.375          39.030                                                            
G32  21776341.652     -368563.015        1698.235          14.437                                                            
R02  20513320.224     -371650.789        3239.866          15.987                                                            
R12  19189161.820     -152170.903        1178.326          30.624                                                            
R11  20592123.669      273074.026       -2441.025          38.846                                                            
R01  20029759.786       80739.718        -697.176          34.555                                                            
> 2019 11 12 08 00 59.0000924  0 11
G10  20280912.416      -99940.927         780.945          38.206    20280907.320     -120517.144         583.131          40.007
G12  21562724.536        5920.702         -97.678          44.248                                                            
G15  25007367.160      230402.283       -2097.321          35.427                                                            
G24  22886641.008      297768.785       -2469.069          33.949    22886647.004      351955.973       -1843.830          30.423
G25  21092469.787     -337842.662        2672.661          23.341    21092381.648     -483225.039        1996.458          21.108
G31  23102015.208     -356480.776        3203.036          38.843                                                            
G32  21775915.048     -370263.696        1694.470          15.467                                                            
R02  20512744.622     -374892.833        3244.628          16.247                                                            
R12  19188941.172     -153348.328        1177.425          31.083                                                            
R11  20592570.060      275515.612       -2441.586          39.231                                                            
R01  20029888.097       81437.573        -697.855          34.559                                                            
> 2019 11 12 08 01  0.0000924  0 11
G10  20280766.118     -100721.028         780.101          38.316    20280758.923     -121099.712         582.568          40.021
G12  21562742.524        6019.232         -98.530          43.898                                                            
G15  25007772.479      232499.881       -2097.597          34.583                                                            
G24  22887113.481      300238.042       -2469.257          33.875    22887117.978      353799.828       -1843.855          29.326
G25  21091961.039     -340515.549        2673.442          22.875    21091869.303     -485228.035        2000.076          21.800
G31  23101402.432     -359683.284        3202.507          38.742                                                            
G32  21775482.147     -371947.851        1693.052          14.172                                                            
R02  20512160.926     -378138.856        3242.308          17.501                                                            
R12  19188721.425     -154524.763        1176.435          31.394                                                            
R11  20593038.936      277957.896       -2442.284          40.270                                                            
R01  20030027.501       82136.263        -698.689          34.491                                                            
> 2019 11 12 08 01  1.0000924  0 11
G10  20280614.123     -101500.330         779.302          37.665    20280610.226     -121681.665         581.953          40.022
G12  21562759.912        6118.722         -99.490          43.484                                                            
G15  25008149.918      234597.695       -2097.814          32.259                                                            
G24  22887580.857      302707.568       -2469.526          34.334    22887587.153      355643.963       -1844.135          29.155
G25  21091448.994     -343187.613        2672.296          22.719    21091364.452     -487223.194        1994.780          22.053
G31  23100793.254     -362885.281        3201.998          38.571                                                            
G32  21775049.847     -373644.082        1696.692          16.137                                                            
R02  20511488.492     -381379.717        3236.209          19.622                                                            
R12  19188501.077     -155700.101        1175.339          31.422                                                            
R11  20593491.023      280400.874       -2442.978          40.470                                                            
R01  20030165.105       82835.659        -699.397          34.252                                                            
> 2019 11 12 08 01  2.0000924  0 12
G10  20280468.724     -102278.874         778.544          37.194    20280462.128     -122263.063         581.398          40.029
G12  21562777.300        6218.948        -100.226          43.291                                                            
G15  25008547.143      236695.733       -2098.039          30.500                                                            
G21  24592648.364      106650.411       -1916.364          21.423                                                            
G24  22888058.727      305177.282       -2469.714          35.006    22888058.727      357488.200       -1844.237          28.678
G25  21090935.449     -345858.958        2672.908          21.063    21090853.906     -489217.810        1990.212          23.052
G31  23100185.574     -366086.851        3201.570          38.410                                                            
G32  21774628.039     -283358.436        2269.255          22.412    21774619.944     -375339.860        1686.294          17.779
R02  20510882.312     -384617.551        3236.719          19.349                                                            
R12  19188287.625     -156874.598        1174.496          31.280                                                            
R11  20593941.911      282844.377       -2443.503          40.113                                                            
R01  20030281.125       83535.745        -700.085          33.659                                                            
> 2019 11 12 08 01  3.0000924  0 12
G10  20280320.626     -103056.676         777.802          37.293    20280314.331     -122843.884         580.821          40.107
G12  21562799.485        6319.956        -101.009          42.806                                                            
G15  25008941.070      238793.901       -2098.168          29.134                                                            
G21  24593007.815      108565.457       -1915.003          20.973                                                            
G24  22888526.403      307647.089       -2469.807          35.291    22888526.703      359332.588       -1844.322          28.100
G25  21090426.402     -348527.201        2668.752          19.416    21090355.351     -491212.531        1994.311          23.721
G31  23099576.696     -369288.043        3201.192          38.331                                                            
G32  21774190.342     -285628.991        2275.309          22.043    21774185.845     -377035.400        1693.972          15.231
R02  20510298.016     -387855.883        3238.638          20.059                                                            
R12  19188062.481     -158048.247        1173.649          30.755                                                            
R11  20594406.889      285288.466       -2444.088          40.153                                                            
R01  20030420.828       84236.538        -700.794          33.395                                                            
> 2019 11 12 08 01  4.0000924  0 12
G10  20280172.828     -103833.662         776.986          37.586    20280166.533     -123424.093         580.209          39.992
G12  21562814.474        6421.883        -101.926          42.787                                                            
G15  25009344.291      240892.397       -2098.496          29.382                                                            
G21  24593374.161      110480.618       -1911.751          21.835                                                            
G24  22888992.880      310117.155       -2470.066          35.472    22888998.576      361177.145       -1844.558          28.011
G25  21089925.149     -351193.637        2669.540          20.373    21089837.010     -493197.166        1993.074          25.176
G31  23098966.019     -372488.713        3200.670          38.607                                                            
G32  21773757.441     -287899.418        2266.551          21.640    21773751.146     -378730.759        1698.585          17.054
R02  20509660.957     -391092.958        3239.309          20.823                                                            
R12  19187840.335     -159220.852        1172.606          30.654                                                            
R11  20594865.271      287733.231       -2444.765          40.276                                                            
R01  20030557.833       84938.095        -701.557          32.648                                                            
> 2019 11 12 08 01  5.0000924  0 12
G10  20280026.530     -104609.917         776.256          37.652    20280018.735     -124003.780         579.687          39.970
G12  21562836.959        6524.588        -102.705          42.934                                                            
G15  25009746.013      242991.150       -2098.753          30.465                                                            
G21  24593744.705      112395.824       -1914.714          21.338                                                            
G24  22889466.252      312587.383       -2470.228          35.512    22889468.051      363021.750       -1844.605          27.213
G25  21089414.002     -353862.954        2669.160          20.734    21089332.759     -495191.007        1994.845          23.481
G31  23098359.838     -375689.065        3200.352          38.636                                                            
G32  21773329.638     -290169.336        2262.871          21.665    21773322.143     -380426.040        1700.829          17.931
R02  20509063.171     -394329.845        3235.377          21.198                                                            
R12  19187624.184     -160392.496        1171.644          30.681                                                            
R11  20595314.061      290178.592       -2445.361          40.588                                                            
R01  20030690.941       85640.359        -702.263          32.179                                                            
> 2019 11 12 08 01  6.0000924  0 12
G10  20279876.634     -105385.421         775.503          37.528    20279871.237     -124582.869         579.089          40.187
G12  21562857.344        6628.107        -103.519          42.816                                                            
G15  25010150.133      245090.056       -2098.906          31.461                                                            
G21  24594110.452      114314.873       -1917.748          21.023                                                            
G24  22889936.327      315057.767       -2470.384          34.789    22889940.524      364866.422       -1844.672          27.392
G25  21088897.760     -356531.604        2669.921          21.119    21088821.313     -497179.559        1993.795          22.995
G31  23097746.463     -378888.905        3199.841          38.363                                                            
G32  21772902.733     -292439.242        2269.661          22.405    21772890.442     -382120.814        1696.798          17.072
R02  20508474.678     -397566.309        3236.041          21.303                                                            
R12  19187403.837     -161563.259        1170.763          31.307                                                            
R11  20595780.838      292624.506       -2445.915          40.801                                                            
R01  20030812.357       86343.307        -702.948          31.445                                                            
> 2019 11 12 08 01  7.0000924  0 12
G10  20279731.534     -106160.120         774.699          37.050    20279723.739     -125161.378         578.509          39.917
G12  21562873.833        6732.446        -104.339          42.981                                                            
G15  25010554.553      247189.221       -2099.165          32.959                                                            
G21  24594477.098      116232.711       -1915.682          21.879                                                            
G24  22890404.003      317528.357       -2470.590          34.339    22890407.601      366711.445       -1845.023          27.395
G25  21088400.104     -359199.524        2667.798          21.347    21088319.160     -499171.972        1992.742          22.659
G31  23097137.884     -382088.307        3199.402          38.077                                                            
G32  21772475.829     -294708.989        2273.388          22.073    21772456.042     -383815.864        1695.196          17.561
R02  20507855.307     -400802.334        3236.439          22.065                                                            
R12  19187182.590     -162732.965        1169.706          31.673                                                            
R11  20596234.723      295071.077       -2446.571          40.767                                                            
R01  20030930.176       87046.946        -703.639          30.248                                                            
> 2019 11 12 08 01  8.0000924  0 12
G10  20279585.835     -106934.095         773.976          36.169    20279576.541     -125739.324         577.946          39.881
G12  21562896.917        6837.628        -105.182          43.313                                                            
G15  25010958.074      249288.544       -2099.323          34.328                                                            
G21  24594841.346      118143.180       -1915.351          21.552                                                            
G24  22890871.080      319999.078       -2470.721          33.996    22890877.675      368556.462       -1845.017          28.691
G25  21087881.164     -361866.945        2666.930          22.315    21087805.616     -501161.707        1991.701          23.635
G31  23096530.804     -385287.344        3199.037          38.000                                                            
G32  21772038.731     -296979.666        2270.313          21.651    21772023.742     -385510.575        1692.687          18.319
R02  20507274.609     -404038.250        3235.916          23.615                                                            
R12  19186965.240     -163901.872        1168.907          31.138                                                            
R11  20596694.605      297518.228       -2447.151          40.772                                                            
R01  20031044.397       87751.329        -704.383          28.406                                                            
> 2019 11 12 08 01  9.0000924  0 12
G10  20279437.438     -107707.248         773.153          36.652    20279429.043     -126316.690         577.365          40.144
G12  21562913.705        6943.629        -106.001          43.517                                                            
G15  25011363.693      251388.173       -2099.629          35.573                                                            
G21  24595206.193      120058.588       -1915.514          22.112                                                            
G24  22891342.953      322470.043       -2470.965          34.392    22891348.349      370401.673       -1845.211          28.973
G25  21087382.909     -364533.649        2667.408          21.076    21087303.164     -503152.947        1990.137          22.411
G31  23095922.226     -388485.864        3198.520          37.960                                                            
G32  21771604.632     -299252.586        2268.119          21.592    21771593.539     -387205.066        1691.408          16.521
R02  20506684.917     -407273.600        3233.548          22.961                                                            
R12  19186741.895     -165069.754        1167.882          30.399                                                            
R11  20597158.384      299966.043       -2447.815          41.032                                                            
R01  20031183.800       88456.439        -705.111          27.625                                                            
> 2019 11 12 08 01 10.0000924  0 12
G10  20279288.741     -108479.673         772.425          36.793    20279282.445     -126893.524         576.834          40.100
G12  21562937.689        7050.402        -106.773          43.338                                                            
G15  25011769.912      253487.963       -2099.791          36.797                                                            
G21  24595575.537      121973.732       -1915.403          23.031                                                            
G24  22891811.828      324941.137       -2471.094          34.549    22891817.824      372247.006       -1845.333          29.179
G25  21086886.152     -367199.659        2663.708          21.467    21086790.519     -505140.787        1989.480          22.830
G31  23095313.647     -391684.041        3198.176          37.836                                                            
G32  21771160.339     -301523.966        2271.755          21.433    21771160.939     -388892.277        1699.375          17.371
R02  20506074.240     -410508.671        3232.331          23.240                                                            
R12  19186526.944     -166236.744        1166.990          30.254                                                            
R11  20597615.268      302414.346       -2448.304          40.774                                                            
R01  20031265.044       89162.229        -705.789          26.620                                                            
> 2019 11 12 08 01 11.0000924  0 12
G10  20279140.643     -109251.384         771.711          36.433    20279135.247     -127469.797         576.274          40.191
G12  21562956.576        7157.981        -107.580          43.355                                                            
G15  25012171.634      255587.946       -2099.982          37.470                                                            
G21  24595936.787      123888.855       -1915.855          23.340                                                            
G24  22892279.804      327412.360       -2471.222          34.683    22892288.199      374092.371       -1845.365          29.443
G25  21086369.310     -369864.956        2661.628          20.876    21086287.767     -507131.245        1989.675          23.218
G31  23094702.370     -394881.785        3197.744          37.809                                                            
G32  21770737.632     -303797.630        2270.498          20.918    21770728.638     -390587.860        1695.387          16.715
R02  20505468.959     -413743.498        3234.470          24.003                                                            
R12  19186314.991     -167402.888        1166.144          30.748                                                            
R11  20598070.952      304863.284       -2448.937          40.652                                                            
R01  20031397.252       89868.511        -706.303          26.501                                                            
> 2019 11 12 08 01 12.0000924  0 12
G10  20278994.644     -110022.413         771.029          35.819    20278988.648     -128045.595         575.798          40.004
G12  21562978.760        7266.265        -108.283          43.496                                                            
G15  25012572.456      257688.014       -2100.068          37.547                                                            
G21  24596306.431      125803.744       -1914.965          23.329                                                            
G24  22892754.676      329883.649       -2471.290          34.418    22892758.873      375937.805       -1845.435          29.485
G25  21085857.265     -372529.719        2667.524          22.334    21085774.522     -509122.226        1990.214          22.603
G31  23094096.490     -398079.215        3197.430          37.822                                                            
G32  21770303.233     -306066.333        2267.765          21.053    21770297.537     -392282.221        1688.701          17.994
R02  20504863.678     -416977.942        3234.507          24.050                                                            
R12  19186104.236     -168568.114        1165.227          31.434                                                            
R11  20598535.930      307312.731       -2449.447          40.667                                                            
R01  20031560.339       90575.637        -707.125          26.877                                                            
> 2019 11 12 08 01 13.0000924  0 12
G10  20278845.048     -110792.716         770.303          35.735    20278842.350     -128620.764         575.169          39.985
G12  21562997.048        7375.376        -109.111          43.295                                                            
G15  25012974.778      259788.331       -2100.318          38.410                                                            
G21  24596668.581      127718.606       -1912.860          22.656                                                            
G24  22893221.752      332355.167       -2471.518          34.425    22893228.648      377783.386       -1845.580          29.516
G25  21085353.314     -375193.892        2664.175          22.037    21085271.770     -511111.569        1988.315          22.440
G31  23093487.611     -401276.193        3196.978          38.201                                                            
G32  21769883.523     -308334.971        2269.925          20.932    21769866.435     -393976.237        1694.074          17.839
R02  20504267.991     -420211.928        3233.797          23.805                                                            
R12  19185887.486     -169732.458        1164.343          31.961                                                            
R11  20598987.118      309762.747       -2450.016          40.761                                                            
R01  20031748.909       91283.359        -707.723          28.843                                                            
> 2019 11 12 08 01 14.0000924  0 12
G10  20278700.548     -111562.323         769.608          35.166    20278695.751     -129195.492         574.728          39.751
G12  21563018.033        7485.213        -109.837          42.990                                                            
G15  25013375.900      261888.746       -2100.415          38.774                                                            
G21  24597029.531      129633.586       -1914.692          22.474                                                            
G24  22893697.823      334826.701       -2471.534          34.296    22893699.921      379629.062       -1845.676          29.479
G25  21084843.666     -377857.923        2662.299          21.767    21084762.123     -513101.546        1988.084          22.085
G31  23092877.833     -404472.854        3196.661          37.697                                                            
G32  21769441.629     -310603.368        2270.283          21.248    21769437.432     -395670.041        1695.087          18.069
R02  20503624.636     -423445.554        3229.497          22.074                                                            
R12  19185668.938     -170895.923        1163.465          31.132                                                            
R11  20599445.800      312213.215       -2450.468          39.960                                                            
R01  20031869.725       91991.743        -708.383          29.968                                                            
> 2019 11 12 08 01 15.0000924  0 12
G10  20278554.549     -112332.420         770.096          35.330    20278549.452     -129770.554         575.062          40.063
G12  21563038.719        7594.589        -109.377          43.195                                                            
G15  25013774.324      263988.157       -2099.411          39.434                                                            
G21  24597395.278      131547.219       -1913.900          23.215                                                            
G24  22894165.499      337297.176       -2470.475          34.605    22894169.097      381473.882       -1844.820          29.476
G25  21084340.615     -380522.181        2665.492          21.731    21084258.472     -515091.085        1989.106          22.104
G31  23092270.154     -407670.346        3197.492          37.899                                                            
G32  21769018.022     -312872.990        2269.674          22.538    21769005.131     -397364.986        1691.720          18.757
R02  20503020.554     -426680.182        3230.862          22.264                                                            
R12  19185445.592     -172059.749        1163.826          31.051                                                            
R11  20599906.282      314663.063       -2449.847          40.295                                                            
R01  20032004.932       92699.583        -707.840          31.604                                                            
> 2019 11 12 08 01 16.0000924  0 12
G10  20278405.852     -113101.675         769.255          35.474    20278402.854     -130345.012         574.459          40.025
G12  21563061.803        7704.878        -110.289          42.925                                                            
G15  25014174.248      266087.856       -2099.699          40.145                                                            
G21  24597749.332      133460.932       -1913.632          22.819                                                            
G24  22894634.674      339767.918       -2470.743          34.211    22894638.871      383318.927       -1845.045          29.661
G25  21083831.867     -383185.514        2666.899          20.955    21083748.225     -517081.084        1989.678          22.208
G31  23091664.273     -410867.306        3196.960          38.382                                                            
G32  21768579.126     -315142.081        2269.525          22.487    21768573.130     -399059.431        1695.311          18.066
R02  20502387.393     -429914.487        3237.592          21.285                                                            
R12  19185233.339     -173222.557        1162.808          30.744                                                            
R11  20600362.866      317113.599       -2450.536          40.282                                                            
R01  20032141.637       93408.196        -708.614          32.643                                                            
> 2019 11 12 08 01 17.0000924  0 12
G10  20278261.652     -113869.831         768.156          35.594    20278256.855     -130918.599         573.587          40.029
G12  21563080.690        7816.367        -111.489          42.966                                                            
G15  25014580.766      268188.146       -2100.290          40.812                                                            
G21  24598114.480      135375.020       -1915.320          21.479                                                            
G24  22895102.650      342239.203       -2471.284          33.600    22895110.445      385164.451       -1845.524          29.630
G25  21083337.809     -385847.699        2662.172          22.719    21083243.974     -519069.132        1987.988          21.468
G31  23091055.395     -414063.479        3196.173          38.788                                                            
G32  21768155.819     -317410.579        2266.101          22.178    21768139.631     -400753.579        1694.754          17.886
R02  20501803.397     -433148.844        3232.235          19.944                                                            
R12  19185010.594     -174384.003        1161.446          30.720                                                            
R11  20600818.850      319565.127       -2451.529          40.444                                                            
R01  20032273.845       94117.933        -709.737          33.567                                                            
> 2019 11 12 08 01 18.0000924  0 12
G10  20278112.355     -114637.012         767.181          35.657    20278110.856     -131491.465         572.866          39.983
G12  21563101.076        7928.896        -112.529          42.924                                                            
G15  25014978.591      270288.825       -2100.679          41.145                                                            
G21  24598478.428      137289.301       -1917.297          22.126                                                            
G24  22895574.224      344710.895       -2471.693          33.261    22895580.220      387010.179       -1845.728          29.492
G25  21082837.156     -388509.122        2658.484          21.857    21082733.427     -521062.713        1986.771          21.361
G31  23090446.217     -417259.056        3195.577          38.719                                                            
G32  21767710.328     -319678.914        2270.003          22.353    21767704.332     -402447.407        1694.500          17.641
R02  20501181.327     -436386.898        3230.058          18.359                                                            
R12  19184789.946     -175544.406        1160.403          30.866                                                            
R11  20601282.329      322017.444       -2452.316          40.795                                                            
R01  20032412.649       94828.541        -710.608          34.501                                                            
> 2019 11 12 08 01 19.0000924  0 12
G10  20277970.553     -115403.203         766.191          35.910    20277965.157     -132063.657         572.191          40.080
G12  21563123.560        8042.392        -113.496          42.486                                                            
G15  25015374.916      272389.898       -2101.073          41.342                                                            
G21  24598853.768      139203.640       -1915.525          22.749                                                            
G24  22896041.600      347182.918       -2472.022          32.712    22896050.294      388856.116       -1845.937          30.309
G25  21082330.207     -391169.800        2657.610          21.515    21082228.877     -523049.358        1985.651          21.768
G31  23089839.737     -420453.994        3194.938          38.559                                                            
G32  21767277.727     -321946.793        2271.324          22.120    21767272.931     -404140.836        1696.357          18.589
R02  20500598.831     -439616.888        3230.156          17.023                                                            
R12  19184568.699     -176703.683        1159.277          30.929                                                            
R11  20601738.613      324470.513       -2453.069          40.789                                                            
R01  20032565.543       95540.038        -711.497          34.509                                                            
> 2019 11 12 08 01 20.0000924  0 12
G10  20277820.357     -116168.562         765.360          36.048    20277819.158     -132635.212         571.556          40.054
G12  21563143.346        8156.771        -114.378          42.342                                                            
G15  25015775.439      274491.301       -2101.403          41.623                                                            
G21  24599229.108      141118.009       -1913.983          22.443                                                            
G24  22896510.775      349655.234       -2472.316          32.534    22896521.268      390702.393       -1846.277          31.437
G25  21081828.054     -393829.719        2662.932          22.288    21081720.129     -525038.053        1987.081          21.340
G31  23089230.558     -423648.407        3194.414          38.265                                                            
G32  21766858.018     -324214.355        2268.016          22.835    21766845.426     -405834.219        1695.776          19.013
R02  20499944.684     -442844.140        3229.066          15.626                                                            
R12  19184351.950     -177861.804        1158.120          30.914                                                            
R11  20602198.795      326924.299       -2453.786          39.556                                                            
R01  20032680.364       96252.323        -712.285          34.949                                                            
> 2019 11 12 08 01 21.0000924  0 12
G10  20277676.157     -116933.151         764.588          36.019    20277673.759     -133206.178         570.966          39.967
G12  21563167.630        8271.958        -115.187          42.576                                                            
G15  25016177.161      276592.857       -2101.556          41.842                                                            
G21  24599584.962      143032.500       -1914.491          24.104                                                            
G24  22896984.148      352127.698       -2472.464          32.613    22896991.643      392548.658       -1846.265          31.819
G25  21081315.409     -396488.735        2662.887          21.450    21081214.079     -527016.426        1984.526          20.851
G31  23088622.279     -426842.379        3193.972          38.519                                                            
G32  21766422.419     -326481.627        2264.667          22.030    21766416.124     -407527.388        1696.471          16.584
R02  20499373.879     -446068.598        3233.310          15.162                                                            
R12  19184133.701     -179019.165        1157.361          30.742                                                            
R11  20602659.276      329378.630       -2454.331          40.460                                                            
R01  20032821.866       96965.283        -712.960          35.032                                                            
> 2019 11 12 08 01 22.0000924  0 12
G10  20277530.158     -117696.875         763.725          34.995    20277528.359     -133776.509         570.331          39.961
G12  21563188.915        8388.129        -116.171          42.633                                                            
G15  25016577.084      278694.777       -2101.920          42.287                                                            
G21  24599960.002      144947.156       -1914.656          24.916                                                            
G24  22897453.023      354600.470       -2472.772          32.733    22897462.616      394395.207       -1846.549          31.286
G25  21080797.368     -399149.117        2658.741          21.205    21080702.333     -529016.052        1987.684          20.520
G31  23088016.998     -430035.850        3193.471          38.983                                                            
G32  21766000.312     -328748.508        2267.980          20.823    21765981.125     -409226.843        1698.424          16.215
R02  20498780.889     -449302.934        3232.086          16.829                                                            
R12  19183917.250     -180175.298        1156.133          29.755                                                            
R11  20603114.960      331833.699       -2455.069          40.534                                                            
R01  20032946.879       97679.090        -713.807          35.060                                                            
> 2019 11 12 08 01 23.0000924  0 12
G10  20277386.258     -118459.850         762.975          35.248    20277383.260     -134346.275         569.766          40.011
G12  21563213.498        8505.079        -116.950          42.684                                                            
G15  25016977.607      280796.906       -2102.129          42.664                                                            
G21  24600321.552      146861.713       -1914.560          25.509                                                            
G24  22897926.096      357073.400       -2472.930          32.313    22897933.291      396241.907       -1846.700          29.601
G25  21080293.417     -401806.971        2654.512          19.631    21080202.579     -531001.161        1981.803          20.189
G31  23087409.319     -433228.940        3193.090          38.898                                                            
G32  21765554.820     -331019.514        2271.791          21.185    21765547.625     -410924.978        1695.856          14.818
R02  20498204.688     -452535.760        3227.936          16.205                                                            
R12  19183680.714     -181330.597        1155.298          28.855                                                            
R11  20603579.039      334289.380       -2455.682          40.660                                                            
R01  20033079.088       98393.632        -714.542          34.674                                                            
> 2019 11 12 08 01 24.0000924  0 12
G10  20277237.561     -119222.170         762.320          34.797    20277238.160     -134915.526         569.251          40.032
G12  21563233.584        8622.755        -117.676          43.023                                                            
G15  25017377.830      282899.166       -2102.260          42.924                                                            
G21  24600684.301      148776.185       -1914.471          24.313                                                            
G24  22898398.269      359546.404       -2473.004          32.245    22898403.365      398088.550       -1846.643          28.573
G25  21079800.558     -404460.243        2654.504          21.597    21079695.331     -532984.985        1982.305          20.266
G31  23086798.342     -436421.629        3192.689          38.440                                                            
G32  21765118.622     -333289.582        2270.027          21.605    21765118.022     -412621.916        1692.618          17.104
R02  20497634.483     -455756.765        3218.809          13.918                                                            
R12  19183467.862     -182485.089        1153.798          28.454                                                            
R11  20604045.816      336745.604       -2456.224          40.890                                                            
R01  20033199.605       99108.727        -715.095          34.803                                                            
> 2019 11 12 08 01 25.0000924  0 12
G10  20277092.161     -119983.751         761.582          34.261    20277093.360     -135484.230         568.704          40.204
G12  21563257.268        8741.220        -118.464          41.800                                                            
G15  25017779.252      285001.606       -2102.440          43.351                                                            
G21  24601045.251      150690.007       -1913.714          23.728                                                            
G24  22898865.046      362019.546       -2473.141          30.270    22898875.838      399935.365       -1846.815          28.114
G25  21079266.328     -407116.709        2658.540          22.637    21079187.182     -534968.311        1984.695          19.415
G31  23086193.661     -439613.949        3192.320          38.585                                                            
G32  21764694.715     -335551.297        2262.786          22.006    21764687.820     -414313.258        1691.647          17.683
R02  20496899.692     -458979.362        3223.472          13.723                                                            
R12  19183258.007     -183638.623        1153.534          28.883                                                            
R11  20604501.800      339202.359       -2456.755          40.765                                                            
R01  20033347.402       99824.592        -715.865          35.284                                                            
> 2019 11 12 08 01 26.0000924  0 12
G10  20276950.659     -120744.497         760.745          34.523    20276948.261     -136052.309         568.079          40.177
G12  21563277.654        8860.536        -119.316          41.528                                                            
G15  25018176.777      287104.259       -2102.652          43.577                                                            
G21  24601413.396      152604.425       -1914.418          23.630                                                            
G24  22899328.825      364492.844       -2473.298          29.152    22899344.714      401782.338       -1846.972          28.008
G25  21078771.070     -409772.553        2655.725          23.996    21078687.728     -536951.322        1986.039          20.490
G31  23085588.380     -442805.729        3191.781          38.602                                                            
G32  21764257.018     -337817.593        2264.064          22.802    21764258.817     -416005.656        1691.148          16.623
R02  20496210.769     -462202.814        3228.703          13.680                                                            
R12  19183049.051     -184791.221        1152.599          29.351                                                            
R11  20604965.879      341659.737       -2457.377          40.427                                                            
R01  20033477.212      100541.145        -716.553          35.212                                                            
> 2019 11 12 08 01 27.0000924  0 13
G10  20276803.761     -121504.443         759.947          34.616    20276803.761     -136619.790         567.481          40.179
G12  21563301.037        8980.767        -120.231          41.553                                                            
G15  25018580.297      289207.293       -2103.035          43.658                                                            
G21  24601765.052      154519.621       -1914.993          23.447                                                            
G24  22899802.497      366966.534       -2473.690          29.300    22899816.287      403629.573       -1847.325          28.157
G25  21078259.325     -412427.519        2654.404          24.203    21078180.180     -538934.058        1982.442          20.116
G31  23084980.700     -445997.038        3191.309          38.723                                                            
G32  21763830.414     -340083.474        2267.101          22.184    21763823.219     -417691.224        1687.444          18.143
R02  20495610.884     -465383.444        3229.856          14.798                                                            
R13  22378264.350     -631141.281        4310.075          23.020                                                            
R12  19182833.800     -185942.780        1151.559          29.571                                                            
R11  20605423.062      344117.854       -2458.117          40.424                                                            
R01  20033619.014      101258.548        -717.403          35.367                                                            
> 2019 11 12 08 01 28.0000924  0 13
G10  20276661.060     -122263.540         759.097          34.376    20276659.561     -137186.686         566.896          40.082
G12  21563325.021        9101.845        -121.077          41.453                                                            
G15  25018982.019      291310.485       -2103.192          43.797                                                            
G21  24602129.001      156434.102       -1914.457          24.002                                                            
G24  22900276.169      369440.366       -2473.832          29.171    22900285.762      405476.920       -1847.347          28.018
G25  21077751.776     -415081.895        2653.973          25.034    21077680.725     -540914.145        1983.315          20.667
G31  23084373.021     -449187.926        3190.888          38.623                                                            
G32  21763401.111     -342349.209        2267.559          22.419    21763393.316     -419379.637        1691.805          18.470
R02  20495035.282     -468613.218        3229.679          14.587                                                            
R13  22377468.401     -635453.147        4311.500          21.939                                                            
R12  19182624.545     -187093.374        1150.594          30.082                                                            
R11  20605880.546      346576.522       -2458.669          40.249                                                            
R01  20033755.420      101976.661        -718.113          35.281                                                            
> 2019 11 12 08 01 29.0000924  0 13
G10  20276515.960     -123022.008         758.468          34.622    20276515.061     -137753.044         566.358          39.990
G12  21563350.203        9223.610        -121.766          42.009                                                            
G15  25019382.842      293413.854       -2103.369          43.585                                                            
G21  24602503.441      158348.585       -1914.274          23.860                                                            
G24  22900745.044      371914.311       -2473.945          28.553    22900759.134      407324.299       -1847.379          27.967
G25  21077246.626     -417735.621        2653.258          25.134    21077168.080     -542895.868        1982.008          19.669
G31  23083764.742     -452378.460        3190.534          38.740                                                            
G32  21762967.011     -344614.853        2262.697          22.030    21762963.714     -421071.878        1690.260          18.269
R02  20494509.446     -471843.569        3226.105          14.482                                                            
R13  22376684.744     -639764.781        4306.502          19.906                                                            
R12  19182406.296     -188243.049        1149.675          31.017                                                            
R11  20606343.425      349035.717       -2459.194          40.381                                                            
R01  20033893.924      102695.354        -718.693          35.304                                                            
> 2019 11 12 08 01 30.0000924  0 13
G10  20276370.861     -123779.718         757.710          34.553    20276370.561     -138318.891         565.847          39.778
G12  21563373.587        9346.193        -122.582          41.822                                                            
G15  25019780.966      295517.397       -2103.542          43.393                                                            
G21  24602862.293      160263.100       -1914.515          24.265                                                            
G24  22901214.819      374388.281       -2473.970          28.659    22901229.509      409171.830       -1847.531          30.440
G25  21076734.280     -420388.727        2653.107          25.006    21076669.226     -544870.017        1979.390          19.030
G31  23083160.361     -455568.540        3190.081          39.405                                                            
G32  21762531.713     -346880.274        2263.131          21.041    21762532.912     -422763.258        1695.196          18.209
R02  20493897.270     -475072.120        3229.848          14.058                                                            
R13  22375902.585     -644075.700        4305.828          17.560                                                            
R12  19182204.836     -189391.876        1148.827          31.604                                                            
R11  20606798.510      351495.490       -2459.773          38.969                                                            
R01  20034021.635      103414.756        -719.402          34.998                                                            
> 2019 11 12 08 01 31.0000924  0 13
G10  20276227.560     -124536.596         756.879          34.852    20276226.660     -138884.120         565.229          39.677
G12  21563397.271        9469.645        -123.452          42.173                                                            
G15  25020182.088      297621.194       -2103.797          43.429                                                            
G21  24603229.239      162177.054       -1913.954          25.036                                                            
G24  22901685.193      376862.575       -2474.294          29.073    22901699.583      411019.499       -1847.668          30.297
G25  21076228.531     -423041.156        2651.834          23.842    21076158.379     -546850.690        1980.752          19.529
G31  23082555.080     -458758.224        3189.683          39.700                                                            
G32  21762106.607     -349145.572        2271.112          21.871    21762103.010     -424454.773        1700.253          17.675
R02  20493287.792     -478304.489        3220.519          13.410                                                            
R13  22375034.686     -648385.659        4306.761          15.685                                                            
R12  19181994.082     -190539.738        1147.861          31.855                                                            
R11  20607262.889      353955.898       -2460.408          38.951                                                            
R01  20034161.639      104134.939        -720.183          35.048                                                            
> 2019 11 12 08 01 32.0000924  0 13
G10  20276086.358     -125292.826         756.230          34.749    20276083.360     -139448.823         564.703          39.647
G12  21563420.055        9593.792        -124.147          42.339                                                            
G15  25020581.112      299725.147       -2103.954          43.165                                                            
G21  24603594.686      164091.951       -1915.015          24.524                                                            
G24  22902161.264      379336.907       -2474.331          29.110    22902170.557      412867.289       -1847.791          29.203
G25  21075724.579     -425692.960        2651.261          24.532    21075659.824     -548832.107        1979.439          19.621
G31  23081946.501     -461947.513        3189.289          39.476                                                            
G32  21761671.009     -351410.567        2270.053          21.499    21761669.809     -426146.159        1691.585          18.789
R02  20492685.209     -481530.198        3222.833          13.354                                                            
R13  22374278.609     -652689.037        4306.803          16.788                                                            
R12  19181777.332     -191686.769        1147.032          31.919                                                            
R11  20607719.473      356416.898       -2461.000          38.629                                                            
R01  20034302.241      104855.719        -720.780          35.035                                                            
> 2019 11 12 08 01 33.0000924  0 13
G10  20275942.457     -126048.319         755.492          34.909    20275938.860     -140012.985         564.163          39.688
G12  21563442.839        9718.764        -124.972          42.266                                                            
G15  25020982.834      301829.283       -2104.136          42.967                                                            
G21  24603957.135      166006.237       -1914.420          24.325                                                            
G24  22902628.340      381811.470       -2474.564          29.096    22902641.831      414715.163       -1847.874          28.567
G25  21075218.530     -428344.046        2650.487          25.003    21075150.177     -550811.768        1979.866          19.387
G31  23081339.121     -465136.385        3188.872          39.573                                                            
G32  21761235.410     -353675.489        2262.550          20.973    21761238.408     -427837.359        1687.014          18.476
R02  20492077.830     -484755.742        3227.262          13.843                                                            
R13  22373449.983     -656995.095        4311.963          18.579                                                            
R12  19181558.783     -192832.849        1146.080          31.758                                                            
R11  20608183.551      358878.416       -2461.517          38.493                                                            
R01  20034446.441      105577.218        -721.499          34.664                                                            
> 2019 11 12 08 01 34.0000924  0 12
G10  20275795.559     -126803.085         754.766          35.043    20275795.259     -140576.565         563.579          39.616
G12  21563468.322        9844.537        -125.773          42.360                                                            
G15  25021382.757      303933.597       -2104.314          42.636                                                            
G21  24604321.683      167920.588       -1914.351          23.786                                                            
G24  22903100.813      384286.148       -2474.678          29.299    22903112.805      416563.128       -1847.965          28.532
G25  21074712.180     -430994.653        2650.607          25.873    21074649.224     -552790.973        1977.569          20.232
G31  23080733.541     -468324.831        3188.446          39.444                                                            
G32  21760809.405     -355940.060        2265.473          20.703    21760806.707     -429528.742        1690.236          16.885
R02  20491537.604     -487983.005        3224.848          14.821                                                            
R12  19181344.132     -193978.052        1145.202          31.708                                                            
R11  20608644.033      361340.501       -2462.085          38.313                                                            
R01  20034579.249      106299.381        -722.163          34.362                                                            
> 2019 11 12 08 01 35.0000924  0 12
G10  20275651.658     -127557.044         753.959          35.122    20275651.958     -141139.603         563.039          39.690
G12  21563491.705        9971.101        -126.564          42.302                                                            
G15  25021783.879      306038.131       -2104.534          42.301                                                            
G21  24604684.431      169834.820       -1912.728          22.892                                                            
G24  22903571.487      386760.993       -2474.845          29.005    22903583.479      418411.222       -1848.094          28.335
G25  21074207.030     -433644.438        2649.785          25.558    21074141.975     -554769.863        1979.267          20.283
G31  23080126.461     -471512.933        3188.102          39.443                                                            
G32  21760371.408     -358204.661        2270.940          20.547    21760374.406     -431220.920        1687.909          18.047
R02  20490917.933     -491212.529        3222.596          15.048                                                            
R12  19181124.983     -195122.245        1144.193          31.568                                                            
R11  20609106.612      363803.223       -2462.722          38.323                                                            
R01  20034703.663      107022.231        -722.850          33.762                                                            
> 2019 11 12 08 01 36.0000924  0 12
G10  20275511.955     -128310.278         753.234          35.306    20275508.358     -141702.105         562.502          39.667
G12  21563515.089       10098.479        -127.378          42.308                                                            
G15  25022183.803      308142.875       -2104.743          42.012                                                            
G21  24605045.082      171749.067       -1914.247          23.286                                                            
G24  22904045.759      389236.044       -2475.050          29.242    22904054.753      420259.440       -1848.218          28.258
G25  21073702.779     -436293.666        2649.227          25.939    21073639.823     -556749.812        1978.113          20.154
G31  23079521.480     -474700.536        3187.603          39.665                                                            
G32  21759937.609     -360467.664        2269.010          19.970    21759943.005     -432911.478        1689.022          17.827
R02  20490265.884     -494436.497        3227.729          19.197                                                            
R12  19180912.730     -196265.514        1143.270          31.542                                                            
R11  20609570.092      366266.480       -2463.257          38.176                                                            
R01  20034826.878      107745.735        -723.504          33.188                                                            
> 2019 11 12 08 01 37.0000924  0 12
G10  20275365.656     -129062.696         752.418          35.510    20275364.757     -142263.963         561.857          39.681
G12  21563541.471       10226.714        -128.235          42.192                                                            
G15  25022583.426      310247.857       -2104.982          41.352                                                            
G21  24605407.531      173663.477       -1913.323          21.988                                                            
G24  22904517.333      391711.253       -2475.209          28.932    22904526.027      422107.836       -1848.396          28.026
G25  21073200.327     -438942.050        2647.876          26.335    21073135.572     -558728.579        1977.490          20.774
G31  23078912.002     -477887.694        3187.158          39.697                                                            
G32  21759515.801     -362734.620        2260.846          21.508    21759508.306     -434602.221        1689.702          17.308
R02  20489752.340     -497661.362        3225.238          19.661                                                            
R12  19180702.576     -197407.898        1142.383          31.453                                                            
R11  20610024.277      368730.387       -2463.907          38.098                                                            
R01  20034963.583      108470.059        -724.324          32.535                                                            
> 2019 11 12 08 01 38.0000924  0 12
G10  20275224.154     -129814.594         751.898          34.862    20275222.356     -142825.407         561.444          39.694
G12  21563566.953       10355.536        -128.822          42.043                                                            
G15  25022981.550      312352.913       -2105.057          40.674                                                            
G21  24605778.674      175577.590       -1914.848          22.459                                                            
G24  22904982.910      394186.482       -2475.229          28.619    22904996.401      423956.202       -1848.366          27.885
G25  21072688.281     -441590.023        2647.974          26.499    21072632.520     -560712.470        1980.493          20.436
G31  23078307.620     -481074.617        3186.923          39.502                                                            
G32  21759073.307     -364997.793        2264.434          20.820    21759077.504     -436292.876        1693.092          17.550
R02  20489141.363     -500886.726        3225.138          19.680                                                            
R12  19180487.925     -198549.420        1141.522          31.921                                                            
R11  20610479.962      371194.672       -2464.286          37.965                                                            
R01  20035102.387      109194.879        -724.819          32.474                                                            
> 2019 11 12 08 01 39.0000924  0 12
G10  20275083.552     -130565.833         751.238          35.468    20275079.355     -143386.391         560.984          39.857
G12  21563590.037       10485.063        -129.527          42.503                                                            
G15  25023387.469      314457.952       -2105.039          40.700                                                            
G21  24606140.523      177491.466       -1912.675          22.488                                                            
G24  22905455.083      396661.617       -2475.135          28.132    22905468.274      425804.554       -1848.352          28.660
G25  21072177.735     -444237.581        2647.557          27.345    21072126.770     -562689.230        1978.381          20.220
G31  23077701.440     -484261.303        3186.686          39.297                                                            
G32  21758658.994     -367261.765        2263.031          21.699    21758653.897     -437983.524        1687.336          17.709
R02  20488519.893     -504111.879        3224.304          20.866                                                            
R12  19180285.565     -199690.231        1140.811          32.059                                                            
R11  20610942.841      373659.370       -2464.698          37.176                                                            
R01  20035234.596      109920.187        -725.309          32.321                                                            
> 2019 11 12 08 01 40.0000924  0 12
G10  20274937.853     -131316.146         750.313          35.227    20274936.354     -143946.704         560.314          39.651
G12  21563616.119       10615.584        -130.520          42.607                                                            
G15  25023781.696      316563.438       -2105.486          39.858                                                            
G21  24606508.669      179405.592       -1914.126          23.188                                                            
G24  22905929.055      399137.204       -2475.587          30.070    22905938.649      427653.187       -1848.632          29.735
G25  21071671.685     -446884.171        2646.590          27.272    21071624.918     -564674.035        1978.773          20.642
G31  23077096.159     -487447.376        3186.073          39.373                                                            
G32  21758226.693     -369525.462        2261.298          22.201    21758225.194     -439673.824        1690.989          17.996
R02  20487916.710     -507336.458        3221.998          19.835                                                            
R12  19180059.521     -200830.020        1139.789          32.148                                                            
R11  20611396.127      376124.844       -2465.474          36.633                                                            
R01  20035367.404      110646.404        -726.216          31.825                                                            
> 2019 11 12 08 01 41.0000924  0 12
G10  20274795.151     -132065.795         749.649          34.825    20274793.952     -144506.518         559.814          39.638
G12  21563641.302       10746.799        -131.215          42.683                                                            
G15  25024181.320      318668.978       -2105.540          38.823                                                            
G21  24606868.719      181319.530       -1915.246          22.689                                                            
G24  22906400.929      401612.830       -2475.626          31.424    22906409.922      429501.881       -1848.695          29.425
G25  21071163.837     -449530.238        2646.067          27.438    21071121.566     -566656.670        1975.983          19.922
G31  23076488.180     -490633.071        3185.695          39.596                                                            
G32  21757801.587     -371788.907        2263.445          23.590    21757788.996     -441364.144        1694.065          18.907
R02  20487324.620     -510560.776        3225.357          17.850                                                            
R12  19179840.673     -201968.920        1138.899          32.074                                                            
R11  20611863.804      378590.892       -2466.048          36.769                                                            
R01  20035502.310      111373.244        -726.840          32.142                                                            
> 2019 11 12 08 01 42.0000924  0 12
G10  20274649.752     -132814.712         748.917          35.278    20274651.251     -145065.783         559.265          39.546
G12  21563664.985       10878.777        -131.978          42.616                                                            
G15  25024580.044      320774.752       -2105.774          38.389                                                            
G21  24607226.072      183233.544       -1915.466          22.558                                                            
G24  22906870.404      404088.620       -2475.790          32.418    22906880.896      431350.703       -1848.821          29.706
G25  21070658.387     -452175.620        2645.382          26.842    21070619.114     -568632.710        1977.371          20.551
G31  23075883.798     -493818.430        3185.359          39.893                                                            
G32  21757365.989     -374052.324        2262.578          22.773    21757356.695     -443054.189        1698.251          16.574
R02  20486726.235     -513784.773        3224.267          16.791                                                            
R12  19179620.925     -203106.888        1137.969          31.782                                                            
R11  20612320.088      381057.527       -2466.634          37.256                                                            
R01  20035636.917      112100.763        -727.520          31.835                                                            
> 2019 11 12 08 01 43.0000924  0 12
G10  20274512.747     -133562.849         748.137          35.130    20274508.550     -145624.485         558.702          39.448
G12  21563685.671       11011.614        -132.837          41.953                                                            
G15  25024978.768      322880.694       -2105.941          37.886                                                            
G21  24607592.718      185147.398       -1911.500          21.911                                                            
G24  22907341.378      406564.579       -2475.959          32.578    22907351.870      433199.647       -1848.945          29.664
G25  21070152.037     -454820.340        2644.720          25.800    21070118.161     -570608.927        1972.947          19.442
G31  23075277.018     -497003.301        3184.870          39.851                                                            
G32  21756938.485     -376315.737        2262.075          23.091    21756929.191     -444746.931        1687.455          17.985
R02  20486163.824     -517008.143        3223.754          15.395                                                            
R12  19179410.171     -204243.938        1137.049          32.119                                                            
R11  20612787.764      383524.670       -2467.143          38.157                                                            
R01  20035775.421      112829.011        -728.248          31.925                                                            
> 2019 11 12 08 01 44.0000924  0 12
G10  20274368.247     -134310.313         747.465          35.195    20274366.748     -146182.662         558.177          39.530
G12  21563713.252       11145.220        -133.606          41.997                                                            
G15  25025373.894      324986.805       -2106.112          36.860                                                            
G21  24607950.970      187067.765       -1914.937          20.508                                                            
G24  22907815.649      409040.627       -2476.048          33.167    22907822.544      435048.607       -1848.959          29.278
G25  21069645.088     -457464.474        2644.134          24.791    21069614.809     -572581.154        1974.074          19.872
G31  23074672.037     -500187.852        3184.551          39.805                                                            
G32  21756520.274     -378578.811        2263.075          23.492    21756500.788     -446437.242        1684.690          17.584
R02  20485614.304     -520230.952        3225.876          14.535                                                            
R12  19179194.320     -205380.083        1136.145          32.405                                                            
R11  20613249.444      385992.360       -2467.690          38.472                                                            
R01  20035909.129      113557.874        -728.863          31.811                                                            
> 2019 11 12 08 01 45.0000924  0 12
G10  20274227.944     -135056.959         746.646          34.987    20274224.646     -146740.180         557.518          39.344
G12  21563737.235       11279.669        -134.449          41.994                                                            
G15  25025772.618      327093.195       -2106.390          35.829                                                            
G21  24608324.212      188987.433       -1915.664          19.860                                                            
G24  22908287.523      411516.964       -2476.337          33.319    22908295.617      436897.846       -1849.239          29.468
G25  21069136.340     -460107.852        2642.549          23.861    21069123.150     -574555.199        1972.632          20.170
G31  23074065.257     -503371.889        3184.038          39.802                                                            
G32  21756093.370     -380841.472        2262.661          24.041    21756072.384     -448126.687        1684.136          18.500
R02  20484919.385     -523458.485        3218.109          14.245                                                            
R12  19178983.566     -206515.253        1135.170          32.572                                                            
R11  20613709.926      388460.718       -2468.359          38.318                                                            
R01  20036028.146      114287.526        -729.652          32.202                                                            
> 2019 11 12 08 01 46.0000924  0 12
G10  20274081.645     -135802.814         745.855          35.241    20274082.545     -147297.195         557.016          39.496
G12  21563766.315       11414.879        -135.210          41.971                                                            
G15  25026168.644      329199.708       -2106.513          35.612                                                            
G21  24608677.067      190908.211       -1918.494          20.476                                                            
G24  22908757.897      413993.407       -2476.443          33.076    22908765.392      438747.135       -1849.289          29.505
G25  21068627.892     -462750.636        2642.205          24.265    21068621.897     -576523.517        1969.650          24.461
G31  23073459.976     -506555.528        3183.639          40.160                                                            
G32  21755658.371     -383103.470        2262.247          23.988    21755639.484     -449816.271        1692.361          18.268
R02  20484220.569     -526671.357        3226.670          13.877                                                            
R12  19178769.814     -207649.498        1134.246          32.712                                                            
R11  20614174.004      390929.621       -2468.903          38.031                                                            
R01  20036176.843      115017.860        -730.334          32.300                                                            
> 2019 11 12 08 01 47.0000924  0 12
G10  20273945.240     -136548.077         745.263          35.584    20273940.743     -147853.670         556.475          39.257
G12  21563789.099       11550.875        -135.997          41.841                                                            
G15  25026562.871      331306.409       -2106.701          34.763                                                            
G21  24609045.512      192829.695       -1915.051          19.212                                                            
G24  22909230.370      416469.974       -2476.567          32.906    22909236.965      440596.507       -1849.373          29.325
G25  21068115.247     -465392.835        2642.199          23.887    21068105.354     -578495.013        1973.662          22.247
G31  23072853.796     -509738.835        3183.308          40.312                                                            
G32  21755240.161     -385365.849        2262.379          24.456    21755205.085     -451505.572        1692.600          18.547
R02  20483570.319     -529889.186        3229.538          13.917                                                            
R12  19178554.263     -208782.948        1133.450          32.935                                                            
R11  20614630.288      393399.079       -2469.458          38.062                                                            
R01  20036315.647      115748.785        -730.925          32.472                                                            
> 2019 11 12 08 01 48.0000924  0 12
G10  20273801.939     -137292.614         744.537          35.498    20273799.241     -148409.696         556.026          39.395
G12  21563811.584       11687.569        -136.693          41.785                                                            
G15  25026958.897      333413.206       -2106.797          33.743                                                            
G21  24609401.666      194745.168       -1911.583          18.782                                                            
G24  22909702.843      418946.601       -2476.627          33.625    22909707.939      442445.937       -1849.430          29.602
G25  21067613.695     -468034.378        2640.449          23.888    21067601.703     -580465.379        1971.717          20.851
G31  23072248.815     -512921.780        3182.945          40.367                                                            
G32  21754802.464     -387628.055        2262.206          24.092    21754773.983     -453194.916        1691.172          18.156
R02  20483082.257     -533110.559        3222.372          14.520                                                            
R12  19178345.008     -209915.466        1132.518          33.233                                                            
R11  20615093.468      395869.037       -2469.958          37.777                                                            
R01  20036454.151      116480.389        -731.604          32.742                                                            
> 2019 11 12 08 01 49.0000924  0 12
G10  20273662.835     -138036.413         743.799          35.632    20273657.439     -148965.137         555.442          39.249
G12  21563840.064       11824.991        -137.422          41.984                                                            
G15  25027355.822      335520.146       -2106.940          33.162                                                            
G21  24609763.515      196658.820       -1911.050          19.169                                                            
G24  22910177.114      421423.325       -2476.724          34.232    22910179.813      444295.440       -1849.503          29.605
G25  21067108.244     -470675.361        2640.688          24.039    21067108.244     -582437.549        1971.646          21.729
G31  23071642.334     -516104.355        3182.575          40.577                                                            
G32  21754368.964     -389890.658        2262.603          23.184    21754347.978     -454884.266        1687.751          18.521
R02  20482521.046     -536333.104        3223.555          14.665                                                            
R12  19178151.042     -211047.197        1131.731          33.695                                                            
R11  20615562.043      398339.509       -2470.472          37.781                                                            
R01  20036586.360      117212.644        -732.256          32.687                                                            
> 2019 11 12 08 01 50.0000924  0 12
G10  20273516.537     -138779.525         743.113          35.426    20273516.537     -149520.042         554.904          39.324
G12  21563867.345       11963.245        -138.254          42.002                                                            
G15  25027762.341      337627.317       -2107.172          33.431                                                            
G21  24610129.562      198572.404       -1916.363          18.016                                                            
G24  22910644.791      423900.216       -2476.891          34.113    22910651.086      446145.071       -1849.631          29.447
G25  21066595.300     -473315.764        2640.150          23.558    21066597.098     -584407.309        1972.780          23.569
G31  23071038.253     -519286.563        3182.207          40.400                                                            
G32  21753932.766     -392152.137        2264.893          23.102    21753920.174     -456573.385        1685.068          18.510
R02  20481918.763     -539550.862        3219.101          13.897                                                            
R12  19177922.900     -212177.991        1130.795          34.052                                                            
R11  20616018.327      400810.524       -2471.014          37.910                                                            
R01  20036723.665      117945.551        -732.907          32.615                                                            
> 2019 11 12 08 01 51.0000924  0 12
G10  20273376.833     -139521.907         742.382          35.319    20273375.035     -150074.426         554.385          39.354
G12  21563892.228       12102.237        -138.992          41.676                                                            
G15  25028164.662      339734.573       -2107.256          33.874                                                            
G21  24610479.719      200486.937       -1918.723          17.277                                                            
G24  22911117.264      426377.254       -2477.037          34.494    22911122.660      447994.818       -1849.747          28.830
G25  21066096.445     -475955.425        2639.660          23.716    21066098.543     -586378.416        1970.756          21.631
G31  23070432.072     -522468.367        3181.805          40.464                                                            
G32  21753503.763     -394413.918        2261.781          23.055    21753488.174     -458262.403        1689.028          18.502
R02  20481339.863     -542771.957        3219.995          13.251                                                            
R12  19177717.243     -213307.956        1129.965          34.599                                                            
R11  20616483.306      403282.074       -2471.551          38.273                                                            
R01  20036861.569      118679.080        -733.529          32.369                                                            
> 2019 11 12 08 01 52.0000924  0 12
G10  20273240.727     -140263.613         741.706          34.995    20273233.832     -150628.318         553.891          39.364
G12  21563919.809       12242.009        -139.772          41.731                                                            
G15  25028567.883      341842.047       -2107.474          34.548                                                            
G21  24610861.655      202405.790       -1917.733          16.455                                                            
G24  22911587.038      428854.335       -2477.081          34.508    22911593.634      449844.583       -1849.764          29.043
G25  21065594.892     -478594.522        2638.557          23.494    21065592.794     -588350.146        1970.370          21.334
G31  23069825.892     -525649.797        3181.430          40.465                                                            
G32  21753076.259     -396675.418        2261.500          23.123    21753056.173     -459951.266        1692.417          18.547
R02  20480686.316     -545991.081        3220.612          12.879                                                            
R12  19177512.784     -214436.986        1129.030          34.897                                                            
R11  20616947.684      405754.153       -2472.078          38.141                                                            
R01  20036995.577      119413.317        -734.237          32.275                                                            
> 2019 11 12 08 01 53.0000924  0 12
G10  20273094.729     -141004.565         740.952          35.083    20273092.630     -151181.634         553.317          39.329
G12  21563945.591       12382.590        -140.581          41.724                                                            
G15  25028966.607      343949.721       -2107.674          35.132                                                            
G21  24611223.804      204327.213       -1915.807          16.622                                                            
G24  22912060.411      431331.599       -2477.264          34.670    22912064.308      451694.531       -1849.949          28.783
G25  21065101.434     -481232.996        2638.552          23.163    21065096.037     -590320.373        1970.495          21.169
G31  23069219.112     -528830.809        3181.012          40.306                                                            
G32  21752638.262     -398936.943        2261.525          23.558    21752624.471     -461639.979        1690.315          19.124
R02  20479997.393     -549210.982        3221.505          12.646                                                            
R12  19177300.231     -215565.128        1128.142          34.490                                                            
R11  20617408.465      408226.850       -2472.697          38.087                                                            
R01  20037129.884      120148.149        -734.832          32.504                                                            
> 2019 11 12 08 01 54.0000924  0 12
G10  20272952.327     -141744.785         740.220          34.727    20272952.027     -151734.428         552.793          39.325
G12  21563973.172       12523.898        -141.308          41.869                                                            
G15  25029373.725      346057.502       -2107.782          36.041                                                            
G21  24611609.637      206247.947       -1911.635          16.681                                                            
G24  22912533.483      433808.954       -2477.355          35.166    22912535.881      453544.466       -1849.935          29.064
G25  21064594.185     -483870.736        2637.318          23.326    21064588.489     -592295.519        1972.341          22.873
G31  23068614.131     -532011.514        3180.705          40.479                                                            
G32  21752199.666     -401198.251        2261.082          23.528    21752194.269     -463328.696        1686.521          18.948
R02  20479394.510     -552432.617        3217.478          12.102                                                            
R12  19177081.982     -216692.417        1127.289          34.397                                                            
R11  20617883.037      410700.043       -2473.193          38.206                                                            
R01  20037288.474      120883.665        -735.516          32.608                                                            
> 2019 11 12 08 01 55.0000924  0 12
G10  20272811.724     -142484.266         739.481          34.790    20272811.724     -152286.583         552.155          39.446
G12  21563999.554       12666.022        -142.124          41.778                                                            
G15  25029781.143      348165.566       -2108.064          37.005                                                            
G21  24611965.491      208160.599       -1913.240          17.532                                                            
G24  22913009.254      436286.560       -2477.606          35.592    22913007.755      455394.603       -1850.137          29.066
G25  21064097.429     -486507.851        2637.015          23.189    21064091.433     -594264.473        1969.436          22.520
G31  23068006.152     -535191.701        3180.187          40.359                                                            
G32  21751769.763     -403459.252        2260.731          22.760    21751766.166     -465017.102        1690.993          18.726
R02  20478791.927     -555648.561        3217.295          12.195                                                            
R12  19176893.113     -217818.743        1126.326          34.356                                                            
R11  20618335.423      413173.911       -2473.868          38.070                                                            
R01  20037418.884      121619.939        -736.274          32.458                                                            
> 2019 11 12 08 01 56.0000924  0 12
G10  20272670.822     -143222.884         738.618          34.765    20272670.822     -152838.202         551.619          39.332
G12  21564026.835       12809.031        -143.008          41.595                                                            
G15  25030182.565      350273.870       -2108.303          37.671                                                            
G21  24612345.328      210076.319       -1915.783          18.342                                                            
G24  22913476.031      438764.380       -2477.819          35.895    22913479.029      457244.908       -1850.304          29.012
G25  21063599.474     -489144.209        2635.436          22.551    21063584.184     -596235.193        1968.374          22.489
G31  23067403.869     -538371.466        3179.765          40.405                                                            
G32  21751340.460     -405720.129        2260.085          22.407    21751336.263     -466705.420        1689.211          18.750
R02  20478186.946     -558871.853        3218.174          11.718                                                            
R12  19176672.466     -218944.058        1125.316          34.460                                                            
R11  20618793.206      415648.383       -2474.472          37.989                                                            
R01  20037563.683      122356.978        -737.039          31.842                                                            
> 2019 11 12 08 01 57.0000924  0 12
G10  20272530.219     -143960.791         737.907          34.628    20272530.819     -153389.220         551.017          39.591
G12  21564055.315       12952.828        -143.797          41.288                                                            
G15  25030591.182      352382.397       -2108.527          39.155                                                            
G21  24612722.467      211994.124       -1910.983          17.239                                                            
G24  22913951.202      441242.309       -2477.930          35.716    22913949.703      459095.344       -1850.437          28.605
G25  21063086.828     -491779.995        2635.490          22.714    21063090.426     -598203.370        1967.570          21.741
G31  23066797.388     -541550.765        3179.298          40.532                                                            
G32  21750911.457     -407980.768        2267.160          22.300    21750904.262     -468393.411        1687.556          17.361
R02  20477637.127     -562088.319        3219.855          13.205                                                            
R12  19176462.311     -220068.439        1124.381          34.543                                                            
R11  20619249.491      418123.426       -2475.043          37.740                                                            
R01  20037684.799      123094.644        -737.666          31.034                                                            
> 2019 11 12 08 01 58.0000924  0 12
G10  20272388.717     -144698.077         737.287          34.668    20272390.216     -153939.796         550.577          39.434
G12  21564081.097       13097.321        -144.493          41.249                                                            
G15  25030996.502      354490.975       -2108.579          40.035                                                            
G21  24613078.620      213907.335       -1910.551          18.954                                                            
G24  22914424.274      443720.334       -2478.025          36.388    22914421.576      460945.816       -1850.472          28.681
G25  21062592.770     -494415.233        2635.725          22.297    21062581.079     -600172.438        1968.210          23.191
G31  23066190.609     -544729.823        3179.058          40.258                                                            
G32  21750479.456     -410241.262        2263.055          22.294    21750474.360     -470081.279        1686.497          16.997
R02  20477028.848     -565308.170        3219.011          13.543                                                            
R12  19176241.065     -221192.057        1123.617          34.892                                                            
R11  20619719.865      420598.884       -2475.458          37.981                                                            
R01  20037819.706      123832.962        -738.318          30.159                                                            
> 2019 11 12 08 01 59.0000924  0 12
G10  20272252.012     -145434.561         736.483          34.622    20272249.913     -154489.718         549.922          39.329
G12  21564108.978       13242.719        -145.398          41.309                                                            
G15  25031396.125      356599.848       -2108.872          40.059                                                            
G21  24613445.866      215817.754       -1911.158          19.517                                                            
G24  22914893.150      446198.517       -2478.183          36.796    22914894.948      462796.418       -1850.601          28.555
G25  21062089.719     -497049.725        2634.542          21.710    21062083.723     -602139.580        1964.711          22.167
G31  23065586.527     -547908.392        3178.570          40.184                                                            
G32  21750048.355     -412501.405        2256.852          22.852    21750043.858     -471766.133        1685.070          18.990
R02  20476420.269     -568526.246        3218.303          13.169                                                            
R12  19176043.202     -222314.663        1122.607          34.576                                                            
R11  20620183.344      423074.982       -2476.097          37.695                                                            
R01  20037942.321      124571.965        -739.003          28.908                                                            
> 2019 11 12 08 02  0.0000924  0 12
G10  20272112.608     -146170.352         735.791          34.331    20272109.910     -155039.203         549.485          39.350
G12  21564137.158       13388.754        -146.035          41.805                                                            
G15  25031799.046      358708.823       -2108.976          40.628                                                            
G21  24613802.919      217727.864       -1914.880          18.296                                                            
G24  22915367.421      448676.798       -2478.281          36.857    22915364.723      464647.115       -1850.697          28.601
G25  21061598.659     -499685.027        2629.048          18.828    21061577.074     -604113.374        1966.147          22.272
G31  23064981.246     -551086.584        3178.192          40.132                                                            
G32  21749616.054     -414760.981        2254.761          21.744    21749616.354     -473453.035        1683.462          17.987
R02  20475826.380     -571740.018        3221.058          13.578                                                            
R12  19175830.049     -223436.413        1121.750          34.498                                                            
R11  20620646.224      425551.633       -2476.651          37.929                                                            
R01  20038075.729      125311.613        -739.649          28.067                                                            
> 2019 11 12 08 02  1.0000924  0 12
G10  20271970.207     -146905.405         735.053          34.660    20271970.507     -155588.110         548.907          39.278
G12  21564165.339       13535.602        -146.847          42.065                                                            
G15  25032200.768      360817.901       -2109.078          41.155                                                            
G21  24614170.764      219649.603       -1917.146          18.777                                                            
G24  22915838.095      451155.216       -2478.417          37.512    22915838.395      466497.851       -1850.736          28.624
G25  21061078.519     -502323.828        2635.285          18.101    21061084.215     -606079.852        1966.317          22.112
G31  23064375.965     -554264.404        3177.819          40.318                                                            
G32  21749185.552     -417020.677        2257.288          21.999    21749186.152     -475140.814        1687.125          16.615
R02  20475219.600     -574953.738        3228.289          13.115                                                            
R12  19175620.494     -224557.378        1120.965          34.620                                                            
R11  20621110.902      428028.802       -2477.169          37.909                                                            
R01  20038211.535      126051.876        -739.993          26.967                                                            
> 2019 11 12 08 02  2.0000924  0 12
G10  20271835.300     -147639.776         734.371          34.911    20271830.204     -156136.482         548.372          39.317
G12  21564194.119       13683.232        -147.630          42.357                                                            
G15  25032601.890      362927.239       -2109.337          41.351                                                            
G21  24614526.318      221569.043       -1913.157          18.707                                                            
G24  22916310.269      453633.801       -2478.586          37.740    22916308.170      468348.729       -1850.878          28.763
G25  21060568.872     -504964.278        2635.132          14.833    21060575.467     -608051.808        1965.137          22.815
G31  23063770.984     -557441.845        3177.442          40.617                                                            
G32  21748759.547     -419280.466        2260.293          22.396    21748751.153     -476821.306        1685.983          17.503
R02  20474626.311     -578177.757        3214.992          12.737                                                            
R12  19175406.143     -225677.377        1119.999          34.154                                                            
R11  20621569.884      430506.617       -2477.815          37.802                                                            
R01  20038357.234      126792.930        -741.054          27.154                                                            
> 2019 11 12 08 02  3.0000924  0 12
G10  20271692.899     -148373.379         733.603          35.071    20271690.501     -156684.332         547.850          39.280
G12  21564223.199       13831.647        -148.415          42.408                                                            
G15  25033005.711      365036.711       -2109.472          41.953                                                            
G21  24614890.866      223483.199       -1905.270          17.794                                                            
G24  22916783.341      456112.461       -2478.659          38.042    22916781.242      470199.643       -1850.914          28.923
G25  21060041.836     -507604.901        2642.822          10.684    21060078.111     -610017.105        1965.804          21.899
G31  23063169.900     -560618.878        3177.033          40.617                                                            
G32  21748334.741     -421540.141        2258.903          22.465    21748323.949     -478508.804        1687.604          17.608
R02  20474027.925     -581394.981        3216.541          13.095                                                            
R12  19175186.395     -226796.464        1119.087          34.097                                                            
R11  20622038.760      432984.920       -2478.303          38.229                                                            
R01  20038490.042      127534.571        -741.641          26.804                                                            
> 2019 11 12 08 02  4.0000924  0 12
G10  20271554.695     -149106.248         732.869          35.438    20271551.397     -157231.600         547.268          39.380
G12  21564253.178       13980.856        -149.209          42.541                                                            
G15  25033407.732      367146.390       -2109.679          42.333                                                            
G21  24615250.017      225386.316       -1907.423          17.805                                                            
G24  22917256.114      458591.279       -2478.819          38.574    22917252.216      472050.790       -1851.148          28.609
G25  21059566.066     -510232.624        2641.835           9.961    21059576.559     -611985.851        1963.409          21.832
G31  23062563.120     -563795.522        3176.643          40.612                                                            
G32  21747907.837     -423799.632        2261.505          21.389    21747897.344     -480195.964        1684.582          18.107
R02  20473451.724     -584613.210        3216.772          13.041                                                            
R12  19174991.230     -227914.632        1118.168          34.313                                                            
R11  20622499.241      435463.787       -2478.867          38.430                                                            
R01  20038650.131      128276.903        -742.332          27.224                                                            
> 2019 11 12 08 02  5.0000924  0 12
G10  20271414.092     -149838.434         732.186          35.188    20271411.694     -157778.300         546.700          39.328
G12  21564280.159       14130.854        -149.998          42.319                                                            
G15  25033807.356      369256.264       -2109.874          42.387                                                            
G21  24615627.456      227291.439       -1916.802          17.360                                                            
G24  22917730.385      461070.268       -2478.989          38.376    22917725.589      473901.980       -1851.190          28.708
G25  21059065.712     -512833.125        2632.193           9.345    21059080.102     -613950.585        1965.127          20.987
G31  23061961.436     -566971.796        3176.274          40.785                                                            
G32  21747484.530     -426058.824        2261.955          22.684    21747466.842     -481883.140        1690.700          17.925
R02  20472831.154     -587830.205        3216.270          13.569                                                            
R12  19174766.685     -229031.888        1117.256          33.764                                                            
R11  20622970.814      437943.232       -2479.445          38.964                                                            
R01  20038794.032      129019.954        -743.051          27.193                                                            
> 2019 11 12 08 02  6.0000924  0 12
G10  20271277.686     -150569.832         731.398          35.597    20271272.890     -158324.491         546.192          39.446
G12  21564309.539       14281.624        -150.771          42.141                                                            
G15  25034210.876      371366.322       -2110.058          42.654                                                            
G21  24615981.511      229209.532       -1911.160          15.880                                                            
G24  22918199.860      463549.387       -2479.120          38.208    22918197.462      475753.223       -1851.243          28.800
G25  21058566.258     -515463.257        2632.193           8.485    21058574.952     -615908.157        1959.892          22.338
G31  23061354.656     -570147.565        3175.769          40.911                                                            
G32  21747047.432     -428318.003        2258.117          22.504    21747034.241     -483570.143        1692.274          18.025
R02  20472206.386     -591045.293        3217.558          14.533                                                            
R12  19174569.722     -230148.313        1116.425          33.362                                                            
R11  20623437.891      440423.201       -2479.970          39.458                                                            
R01  20038933.135      129763.646        -743.692          27.448                                                            
> 2019 11 12 08 02  7.0000924  0 12
G10  20271143.379     -151300.539         730.707          35.713    20271133.786     -158870.159         545.668          39.429
G12  21564339.818       14433.118        -151.494          42.686                                                            
G15  25034609.001      373476.469       -2110.147          42.724                                                            
G21  24616325.972      231124.733       -1909.681          17.086                                                            
G24  22918670.535      466028.576       -2479.189          38.370    22918667.836      477604.617       -1851.394          28.587
G25  21058064.705     -518093.635        2624.646           9.157    21058077.896     -617870.183        1959.887          21.727
G31  23060752.074     -573323.106        3175.541          40.936                                                            
G32  21746616.331     -430577.107        2258.470          22.983    21746604.339     -485256.928        1684.314          18.538
R02  20471555.537     -594259.612        3212.227          15.351                                                            
R12  19174344.577     -231263.800        1115.487          33.450                                                            
R11  20623902.270      442903.733       -2480.531          39.736                                                            
R01  20039072.239      130507.918        -744.272          28.453                                                            
> 2019 11 12 08 02  8.0000924  0 12
G10  20271004.276     -152030.546         730.007          35.752    20270994.682     -159415.287         545.128          39.360
G12  21564370.097       14585.374        -152.256          42.805                                                            
G15  25035012.821      375586.852       -2110.383          42.826                                                            
G21  24616721.099      233040.987       -1913.289          16.740                                                            
G24  22919142.708      468507.917       -2479.341          38.568    22919142.108      479456.102       -1851.485          28.494
G25  21057564.651     -520720.353        2630.827          11.775    21057573.046     -619829.016        1962.070          21.418
G31  23060147.992     -576498.173        3175.066          41.125                                                            
G32  21746191.825     -432835.815        2258.789          23.635    21746178.034     -486943.713        1683.367          17.963
R02  20470971.841     -597474.473        3217.184          15.753                                                            
R12  19174140.719     -232378.423        1114.623          33.261                                                            
R11  20624355.256      445384.834       -2481.101          39.894                                                            
R01  20039208.944      131252.891        -744.974          29.538                                                            
> 2019 11 12 08 02  9.0000924  0 12
G10  20270863.973     -152759.679         729.133          35.900    20270856.178     -159959.822         544.535          39.448
G12  21564399.777       14738.505        -153.131          43.149                                                            
G15  25035415.143      377697.460       -2110.608          42.873                                                            
G21  24617086.246      234955.753       -1912.268          18.028                                                            
G24  22919616.080      470987.485       -2479.568          38.880    22919610.684      481307.679       -1851.577          28.404
G25  21057161.730     -523347.264        2629.480          13.023    21057074.790     -621792.062        1964.865          21.274
G31  23059546.008     -579672.792        3174.620          41.135                                                            
G32  21745769.717     -435094.345        2258.510          24.552    21745747.532     -488630.430        1681.504          17.433
R02  20470353.069     -600686.818        3214.573          17.229                                                            
R12  19173933.562     -233492.043        1113.620          33.384                                                            
R11  20624828.029      447866.530       -2481.696          39.940                                                            
R01  20039351.346      131998.664        -745.773          30.414                                                            
> 2019 11 12 08 02 10.0000924  0 12
G10  20270725.469     -153488.040         728.360          36.119    20270717.374     -160503.705         543.883          39.425
G12  21564427.957       14892.619        -154.114          42.730                                                            
G15  25035819.863      379808.396       -2110.936          43.089                                                            
G21  24617431.607      236874.492       -1916.482          18.183                                                            
G24  22920088.253      473467.345       -2479.860          38.740    22920083.157      483159.539       -1851.860          28.021
G25  21056623.903     -525972.265        2627.385          18.803    21056574.137     -623751.787        1960.883          20.513
G31  23058941.327     -582846.894        3174.102          41.187                                                            
G32  21745346.110     -437352.529        2257.992          24.380    21745315.531     -490316.631        1678.013          18.653
R02  20469756.183     -603900.306        3207.205          16.496                                                            
R12  19173727.904     -234604.679        1112.636          33.381                                                            
R11  20625295.705      450348.921       -2482.392          39.797                                                            
R01  20039496.745      132745.243        -746.578          31.279                                                            
> 2019 11 12 08 02 11.0000924  0 12
G10  20270584.866     -154215.641         727.601          36.068    20270579.170     -161047.056         543.351          39.489
G12  21564458.236       15047.376        -154.757          42.713                                                            
G15  25036219.486      381919.519       -2111.123          43.316                                                            
G21  24617798.253      238791.192       -1910.147          19.474                                                            
G24  22920558.627      475947.276       -2479.931          38.751    22920556.829      485011.464       -1851.926          27.683
G25  21056129.545     -528600.782        2623.276          18.441    21056076.482     -625711.762        1961.364          20.994
G31  23058336.646     -586020.642        3173.748          41.244                                                            
G32  21744909.612     -439610.647        2258.117          24.645    21744889.826     -492002.860        1682.411          18.405
R02  20469218.355     -607114.508        3211.831          19.586                                                            
R12  19173522.846     -235716.400        1111.721          33.431                                                            
R11  20625751.090      452831.839       -2482.918          39.806                                                            
R01  20039638.247      133492.466        -747.224          32.218                                                            
> 2019 11 12 08 02 12.0000924  0 12
G10  20270447.261     -154942.511         726.870          36.017    20270440.366     -161589.872         542.816          39.428
G12  21564490.914       15202.992        -155.616          43.099                                                            
G15  25036625.705      384030.765       -2111.245          43.334                                                            
G21  24618181.687      240703.945       -1910.825          19.961                                                            
G24  22921031.700      478427.389       -2480.113          38.947    22921029.002      486863.435       -1851.971          28.370
G25  21055597.413     -531226.941        2623.979          20.643    21055567.734     -627675.092        1960.861          21.124
G31  23057733.763     -589193.969        3173.327          41.247                                                            
G32  21744483.307     -441868.711        2258.065          24.876    21744461.423     -493689.034        1685.840          19.046
R02  20468657.443     -610331.238        3219.053          21.161                                                            
R12  19173315.690     -236827.299        1110.899          33.501                                                            
R11  20626222.363      455315.341       -2483.502          40.314                                                            
R01  20039776.451      134240.335        -747.869          32.852                                                            
> 2019 11 12 08 02 13.0000924  0 12
G10  20270309.657     -155668.807         726.296          36.087    20270302.462     -162132.198         542.327          39.368
G12  21564519.094       15359.231        -156.239          43.146                                                            
G15  25037025.628      386142.093       -2111.328          43.244                                                            
G21  24618539.340      242616.454       -1911.768          19.987                                                            
G24  22921502.374      480907.457       -2480.068          39.045    22921498.777      488715.454       -1852.018          28.405
G25  21055102.456     -533852.336        2621.803          21.103    21055071.277     -629630.052        1961.057          20.557
G31  23057131.180     -592367.021        3173.052          41.276                                                            
G32  21744051.906     -444126.982        2257.969          24.386    21744028.822     -495375.117        1692.345          18.142
R02  20468014.688     -613546.444        3213.457          21.514                                                            
R12  19173113.030     -237937.380        1110.082          33.462                                                            
R11  20626687.042      457799.220       -2483.879          40.601                                                            
R01  20039914.056      134988.831        -748.496          33.198                                                            
> 2019 11 12 08 02 14.0000924  0 12
G10  20270171.153     -156394.325         725.518          36.102    20270164.557     -162673.956         541.758          39.262
G12  21564549.673       15516.324        -157.093          43.040                                                            
G15  25037430.048      388253.676       -2111.583          43.229                                                            
G21  24618905.386      244528.294       -1909.792          19.734                                                            
G24  22921975.746      483387.750       -2480.294          38.932    22921972.748      490567.574       -1852.121          28.558
G25  21054598.805     -536477.280        2627.892          22.769    21054574.222     -631595.861        1963.612          19.930
G31  23056526.499     -595539.616        3172.595          41.380                                                            
G32  21743617.507     -446384.636        2257.654          24.108    21743599.519     -497060.975        1691.625          17.606
R02  20467437.288     -616761.179        3211.724          22.937                                                            
R12  19172899.878     -239046.472        1109.091          33.652                                                            
R11  20627150.821      460283.780       -2484.560          40.422                                                            
R01  20040054.659      135738.023        -749.193          33.080                                                            
> 2019 11 12 08 02 15.0000924  0 12
G10  20270033.248     -157119.167         724.842          36.287    20270026.653     -163215.268         541.312          39.289
G12  21564579.352       15674.144        -157.820          42.997                                                            
G15  25037829.371      390365.345       -2111.669          43.179                                                            
G21  24619287.022      246439.996       -1915.066          20.963                                                            
G24  22922448.519      485868.101       -2480.351          38.864    22922442.823      492419.810       -1852.236          28.842
G25  21054100.250     -539101.477        2624.728          22.971    21054074.468     -633555.445        1959.713          21.032
G31  23055923.916     -598711.933        3172.316          41.339                                                            
G32  21743185.806     -448642.115        2257.478          23.937    21743167.518     -498746.749        1681.081          17.733
R02  20466838.902     -619973.774        3210.770          23.638                                                            
R12  19172703.214     -240154.763        1108.292          34.062                                                            
R11  20627617.897      462768.787       -2485.007          40.741                                                            
R01  20040194.362      136487.809        -749.785          33.538                                                            
> 2019 11 12 08 02 16.0000924  0 12
G10  20269897.142     -157843.412         724.245          36.503    20269888.748     -163756.059         540.791          39.190
G12  21564607.233       15832.625        -158.481          43.169                                                            
G15  25038233.791      392477.096       -2111.751          43.310                                                            
G21  24619646.174      248352.398       -1916.563          20.714                                                            
G24  22922917.994      488348.499       -2480.398          38.920    22922916.495      494272.055       -1852.245          29.027
G25  21053602.594     -541725.174        2623.090          23.554    21053575.313     -635516.717        1958.906          19.538
G31  23055318.335     -601883.869        3171.936          41.087                                                            
G32  21742762.199     -450899.036        2257.103          23.848    21742741.213     -500432.542        1681.106          17.520
R02  20466212.936     -623186.010        3211.850          23.599                                                            
R12  19172487.063     -241262.253        1107.490          34.106                                                            
R11  20628086.173      465254.251       -2485.465          40.948                                                            
R01  20040334.965      137238.197        -750.389          34.073                                                            
> 2019 11 12 08 02 17.0000924  0 12
G10  20269758.039     -158566.717         723.304          36.288    20269751.143     -164296.220         540.161          39.385
G12  21564638.711       15991.968        -159.343          43.115                                                            
G15  25038638.211      394589.141       -2112.045          43.343                                                            
G21  24620005.925      250264.736       -1914.461          20.791                                                            
G24  22923390.167      490829.135       -2480.636          38.348    22923386.570      496124.512       -1852.456          29.121
G25  21053108.836     -544348.190        2622.821          24.287    21053073.461     -637475.325        1958.551          21.033
G31  23054714.253     -605055.416        3171.547          40.945                                                            
G32  21742316.408     -453156.325        2257.289          23.629    21742313.410     -502118.010        1682.408          15.111
R02  20465624.743     -626397.795        3212.941          23.886                                                            
R12  19172275.710     -242368.709        1106.455          34.149                                                            
R11  20628543.656      467740.409       -2486.158          41.059                                                            
R01  20040487.859      137989.353        -751.155          34.150                                                            
> 2019 11 12 08 02 18.0000924  0 12
G10  20269621.333     -159289.306         722.589          36.582    20269612.939     -164835.819         539.599          39.450
G12  21564666.892       16152.186        -160.218          43.260                                                            
G15  25039041.133      396701.458       -2112.316          42.805                                                            
G21  24620370.772      252177.104       -1912.932          19.739                                                            
G24  22923861.441      493310.007       -2480.872          38.323    22923858.443      497977.076       -1852.564          28.811
G25  21052604.885     -546970.406        2622.216          24.987    21052576.405     -639440.797        1960.430          20.605
G31  23054110.771     -608226.385        3170.969          40.623                                                            
G32  21741894.300     -455413.164        2256.840          24.177    21741879.610     -503794.309        1682.172          16.593
R02  20465038.049     -629609.237        3211.921          23.335                                                            
R12  19172063.157     -243474.184        1105.475          33.526                                                            
R11  20629005.637      470227.177       -2486.767          40.456                                                            
R01  20040625.464      138741.278        -751.926          34.474                                                            
> 2019 11 12 08 02 19.0000924  0 12
G10  20269484.028     -160011.252         721.947          36.120    20269476.234     -165374.926         539.106          39.494
G12  21564699.869       16313.117        -160.931          43.287                                                            
G15  25039443.454      398813.875       -2112.418          42.543                                                            
G21  24620732.621      254088.583       -1915.217          17.860                                                            
G24  22924333.914      495790.958       -2480.951          37.925    22924330.616      499829.726       -1852.908          29.085
G25  21052102.133     -549592.533        2622.127          25.138    21052076.950     -641398.331        1956.927          20.484
G31  23053506.090     -611397.062        3170.677          40.465                                                            
G32  21741466.496     -457670.500        2257.335          24.338    21741450.007     -505479.692        1679.485          16.000
R02  20464422.575     -632823.730        3211.876          22.591                                                            
R12  19171854.801     -244578.864        1104.680          32.765                                                            
R11  20629467.917      472714.400       -2487.223          40.912                                                            
R01  20040769.064      139493.788        -752.509          34.382                                                            
> 2019 11 12 08 02 20.0000924  0 12
G10  20269347.323     -160732.388         721.135          36.513    20269338.929     -165913.441         538.516          39.565
G12  21564730.748       16474.854        -161.737          43.375                                                            
G15  25039844.876      400926.475       -2112.600          41.908                                                            
G21  24621087.576      255997.627       -1915.047          16.752                                                            
G24  22924807.886      498272.066       -2481.108          37.790    22924802.489      501682.464       -1852.738          28.688
G25  21051599.381     -552213.581        2621.049          25.175    21051578.995     -643360.836        1960.202          20.541
G31  23052905.606     -614567.364        3170.302          40.510                                                            
G32  21741029.399     -459926.617        2256.188          24.530    21741021.304     -507165.048        1685.126          16.603
R02  20463798.407     -636038.081        3208.517          21.375                                                            
R12  19171656.338     -245682.598        1103.734          32.588                                                            
R11  20629934.993      475202.218       -2487.818          41.019                                                            
R01  20040912.365      140246.984        -753.197          34.081                                                            
> 2019 11 12 08 02 21.0000924  0 12
G10  20269209.418     -161452.713         720.326          36.691    20269201.624     -166451.346         537.905          39.420
G12  21564761.926       16637.490        -162.635          43.604                                                            
G15  25040254.393      403039.375       -2112.900          41.506                                                            
G21  24621463.216      257912.825       -1918.635          17.250                                                            
G24  22925278.260      500753.416       -2481.350          37.992    22925274.663      503535.460       -1852.996          28.444
G25  21051101.426     -554833.896        2620.315          26.141    21051079.841     -645320.336        1954.657          20.150
G31  23052301.524     -617737.111        3169.747          40.404                                                            
G32  21740600.995     -462182.910        2255.989          24.400    21740592.301     -508861.269        1687.412          17.369
R02  20463170.942     -639244.039        3209.397          20.800                                                            
R12  19171442.886     -246785.397        1102.799          32.757                                                            
R11  20630405.068      477690.713       -2488.495          41.058                                                            
R01  20041049.070      141000.981        -753.997          33.577                                                            
> 2019 11 12 08 02 22.0000924  0 12
G10  20269070.015     -162172.379         719.666          37.023    20269064.918     -166988.759         537.413          39.318
G12  21564795.203       16800.823        -163.333          43.682                                                            
G15  25040655.215      405152.380       -2113.005          40.981                                                            
G21  24621837.656      259833.875       -1915.130          18.593                                                            
G24  22925750.733      503234.800       -2481.384          38.258    22925748.934      505388.441       -1852.981          28.753
G25  21050597.774     -557453.649        2619.753          26.199    21050581.885     -647270.429        1953.363          19.084
G31  23051698.042     -620906.590        3169.478          40.673                                                            
G32  21740174.390     -464439.105        2256.195          23.113    21740159.101     -510546.577        1684.916          16.750
R02  20462589.944     -642454.564        3210.145          20.699                                                            
R12  19171236.929     -247887.259        1101.863          32.837                                                            
R11  20630867.348      480179.699       -2488.986          41.395                                                            
R01  20041190.572      141755.532        -754.551          33.653                                                            
> 2019 11 12 08 02 23.0000924  0 12
G10  20268938.106     -162891.414         719.034          36.841    20268927.913     -167525.695         536.935          39.149
G12  21564825.182       16964.806        -163.983          43.900                                                            
G15  25041058.136      407265.435       -2113.056          40.172                                                            
G21  24622185.116      261747.973       -1909.506          18.266                                                            
G24  22926222.606      505716.221       -2481.421          39.208    22926219.908      507241.467       -1853.026          28.703
G25  21050100.119     -560072.811        2619.161          25.980    21050079.433     -649224.537        1960.754          20.565
G31  23051094.559     -624075.719        3169.130          41.160                                                            
G32  21739742.689     -466694.931        2257.597          22.088    21739731.897     -512231.470        1684.194          16.364
R02  20461985.562     -645670.005        3211.028          20.406                                                            
R12  19171027.374     -248988.455        1101.195          32.093                                                            
R11  20631337.123      482669.087       -2489.388          41.566                                                            
R01  20041334.473      142510.653        -755.121          32.817                                                            
> 2019 11 12 08 02 24.0000924  0 12
G10  20268796.604     -163609.785         718.372          37.035    20268791.508     -168062.134         536.439          39.233
G12  21564856.361       17129.538        -164.732          43.951                                                            
G15  25041465.854      409378.697       -2113.262          39.643                                                            
G21  24622543.668      263652.353       -1909.845          18.469                                                            
G24  22926698.677      508197.757       -2481.535          39.432    22926693.880      509094.539       -1853.071          28.722
G25  21049606.960     -562691.428        2618.617          27.253    21049587.774     -651175.333        1951.369          19.467
G31  23050491.677     -627244.500        3168.781          41.094                                                            
G32  21739308.590     -468951.152        2256.916          21.043    21739302.894     -513921.537        1685.145          16.466
R02  20461403.365     -648875.282        3206.298          19.179                                                            
R12  19170818.419     -250088.733        1100.278          32.311                                                            
R11  20631803.899      485158.985       -2489.898          42.002                                                            
R01  20041453.790      143266.405        -755.752          32.579                                                            
> 2019 11 12 08 02 25.0000924  0 12
G10  20268661.398     -164327.378         717.592          36.994    20268654.802     -168598.004         535.871          39.130
G12  21564887.839       17295.086        -165.548          44.033                                                            
G15  25041870.874      411492.111       -2113.414          39.277                                                            
G21  24622904.318      265564.748       -1914.984          17.548                                                            
G24  22927166.953      510679.456       -2481.700          39.479    22927164.554      510947.732       -1853.194          28.857
G25  21049111.403     -565309.278        2617.851          27.304    21049084.422     -653127.263        1954.651          20.197
G31  23049889.993     -630412.938        3168.438          41.169                                                            
G32  21738867.295     -471208.198        2257.614          20.814    21738876.289     -515603.538        1680.612          16.025
R02  20460796.285     -652078.405        3208.513          17.112                                                            
R12  19170617.258     -251188.084        1099.351          31.880                                                            
R11  20632272.775      487649.501       -2490.516          42.470                                                            
R01  20041595.592      144022.865        -756.460          31.523                                                            
> 2019 11 12 08 02 26.0000924  0 12
G10  20268523.793     -165044.199         716.821          37.279    20268518.097     -169133.282         535.278          39.031
G12  21564918.717       17461.453        -166.367          44.069                                                            
G15  25042275.294      413605.719       -2113.608          38.893                                                            
G21  24623276.960      267481.510       -1913.680          17.463                                                            
G24  22927642.723      513161.320       -2481.864          39.525    22927637.027      512801.129       -1853.396          28.895
G25  21048608.052     -567926.538        2617.260          27.637    21048591.263     -655078.515        1951.665          19.456
G31  23049286.811     -633580.869        3167.931          41.169                                                            
G32  21738434.395     -473463.929        2262.084          21.340    21738445.487     -517279.823        1681.518          16.078
R02  20460188.306     -655282.170        3211.916          17.426                                                            
R12  19170422.393     -252286.530        1098.445          32.502                                                            
R11  20632737.453      490140.612       -2491.112          42.515                                                            
R01  20041747.587      144780.045        -757.531          30.763                                                            
> 2019 11 12 08 02 27.0000924  0 12
G10  20268389.186     -165760.244         716.044          37.168    20268381.691     -169667.999         534.716          38.837
G12  21564951.395       17628.649        -167.196          43.858                                                            
G15  25042679.714      415719.606       -2113.887          37.838                                                            
G21  24623649.602      269396.697       -1908.947          17.654                                                            
G24  22928116.995      515643.353       -2482.033          39.573    22928110.399      514654.561       -1853.433          28.081
G25  21048111.596     -570543.019        2616.481          26.800    21048090.010     -657030.824        1953.081          19.495
G31  23048683.628     -636748.321        3167.452          41.297                                                            
G32  21738026.977     -475719.195        2254.580          21.767    21738013.786     -518978.929        1683.411          15.150
R02  20459632.191     -658488.328        3211.896          14.498                                                            
R12  19170211.938     -253383.956        1097.426          32.833                                                            
R11  20633207.228      492632.317       -2491.705          42.651                                                            
R01  20041902.580      145537.992        -757.947          29.766                                                            
> 2019 11 12 08 02 28.0000924  0 12
G10  20268249.183     -166475.554         715.310          37.172    20268245.586     -170202.159         534.160          38.999
G12  21564982.573       17796.660        -168.012          43.893                                                            
G15  25043089.530      417833.699       -2114.093          37.032                                                            
G21  24624021.045      271308.432       -1911.562          18.260                                                            
G24  22928587.969      518125.569       -2482.216          39.461    22928581.074      516508.169       -1853.608          28.313
G25  21047613.041     -573158.892        2615.873          27.004    21047594.154     -658981.819        1953.500          19.241
G31  23048082.844     -639915.438        3167.117          41.360                                                            
G32  21737594.676     -477974.529        2252.413          21.510    21737590.179     -520663.144        1675.274          13.934
R02  20459018.216     -661698.463        3217.008          13.094                                                            
R12  19170009.878     -254480.463        1096.507          32.921                                                            
R11  20633674.604      495124.629       -2492.312          42.932                                                            
R01  20042045.281      146296.499        -758.507          28.600                                                            
> 2019 11 12 08 02 29.0000924  0 12
G10  20268114.576     -167190.026         714.472          36.860    20268109.780     -170735.730         533.572          38.939
G12  21565014.351       17965.489        -168.828          43.983                                                            
G15  25043497.547      419948.009       -2114.310          36.499                                                            
G21  24624381.695      273216.603       -1915.485          18.218                                                            
G24  22929060.142      520607.965       -2482.396          39.407    22929054.746      518361.892       -1853.723          27.843
G25  21047118.383     -575774.070        2615.178          26.696    21047096.198     -660934.251        1953.241          19.229
G31  23047479.662     -643082.090        3166.652          41.292                                                            
G32  21737167.772     -480229.382        2254.846          21.353    21737160.577     -522347.451        1676.989          11.734
R02  20458345.782     -664921.203        3216.784          12.506                                                            
R12  19169795.827     -255576.107        1095.644          32.590                                                            
R11  20634143.180      497617.498       -2492.868          42.956                                                            
R01  20042167.296      147055.813        -759.314          27.732                                                            
> 2019 11 12 08 02 30.0000924  0 12
G10  20267975.473     -167903.786         713.760          36.873    20267974.273     -171268.733         533.003          38.976
G12  21565047.928       18135.110        -169.622          44.086                                                            
G15  25043906.165      422062.532       -2114.522          36.038                                                            
G21  24624733.352      275127.744       -1916.411          18.770                                                            
G24  22929530.816      523090.500       -2482.534          39.380    22929527.219      520215.772       -1853.880          28.243
G25  21046619.229     -578388.024        2613.695          25.975    21046596.444     -662889.398        1954.123          17.814
G31  23046877.379     -646248.263        3166.173          41.056                                                            
G32  21736726.178     -482484.532        2256.700          19.693    21736725.578     -524030.601        1682.115          14.763
R02  20457686.538     -668130.496        3231.183          12.107                                                            
R12  19169595.865     -256670.720        1094.613          32.926                                                            
R11  20634609.957      500110.952       -2493.454          42.975                                                            
R01  20042324.687      147815.812        -759.999          26.281                                                            
> 2019 11 12 08 02 31.0000924  0 11
G10  20267840.266     -168616.802         713.016          36.707    20267838.168     -171801.159         532.426          38.905
G12  21565082.704       18305.590        -170.480          44.314                                                            
G15  25044312.683      424177.277       -2114.746          35.265                                                            
G21  24625105.694      277040.387       -1915.436          17.514                                                            
G24  22930002.989      525573.248       -2482.748          39.564    22929999.092      522069.718       -1853.946          28.873
G25  21046123.672     -581002.434        2613.744          25.717    21046101.187     -664841.544        1954.025          19.487
G31  23046273.597     -649414.081        3165.818          40.864                                                            
G32  21736294.476     -484742.568        2251.758          20.352    21736297.175     -525714.557        1678.590          15.295
R12  19169375.218     -257764.445        1093.724          32.711                                                            
R11  20635075.834      502604.983       -2494.031          42.738                                                            
R01  20042446.403      148576.418        -760.426          23.959                                                            
> 2019 11 12 08 02 32.0000924  0 11
G10  20267705.659     -169329.059         712.257          36.968    20267702.661     -172333.050         531.891          38.965
G12  21565114.182       18476.777        -171.187          44.654                                                            
G15  25044722.799      426292.184       -2114.906          35.230                                                            
G21  24625448.057      278957.630       -1914.251          16.856                                                            
G24  22930475.762      528056.070       -2482.823          39.467    22930472.764      523923.792       -1854.074          28.743
G25  21045628.415     -583615.554        2613.120          26.144    21045604.731     -666792.856        1952.218          20.234
G31  23045669.815     -652579.486        3165.405          40.954                                                            
G32  21735864.874     -486991.135        2251.765          20.142    21735868.771     -527398.200        1681.699          14.943
R12  19169174.357     -258857.332        1092.888          33.396                                                            
R11  20635536.315      505099.605       -2494.622          42.625                                                            
R01  20042570.817      149338.429        -758.782          22.663                                                            
> 2019 11 12 08 02 33.0000924  0 11
G10  20267571.352     -170040.610         711.550          37.236    20267567.455     -172864.419         531.369          38.941
G12  21565146.260       18648.787        -172.010          43.858                                                            
G15  25045127.519      428407.291       -2115.107          35.221                                                            
G21  24625805.709      280873.504       -1912.928          17.650                                                            
G24  22930947.935      530539.033       -2482.963          38.994    22930944.338      525777.912       -1854.120          27.131
G25  21045129.560     -586228.127        2612.573          26.732    21045109.174     -668743.701        1949.995          19.412
G31  23045070.530     -655744.466        3164.980          41.523                                                            
G32  21735424.479     -489244.210        2256.519          19.830    21735440.068     -529084.270        1681.029          14.138
R12  19168994.781     -259949.195        1091.862          33.502                                                            
R11  20635999.195      507594.801       -2495.196          42.270                                                            
R01  20042729.407      150100.440        -762.641          21.460                                                            
> 2019 11 12 08 02 34.0000924  0 11
G10  20267433.748     -170751.665         711.055          37.151    20267432.249     -173395.385         530.966          38.619
G12  21565180.436       18821.298        -172.511          43.474                                                            
G15  25045531.939      430522.307       -2115.016          35.754                                                            
G21  24626168.758      282777.142       -1910.425          17.066                                                            
G24  22931419.509      533021.904       -2482.871          38.752    22931420.408      527632.037       -1853.413          26.402
G25  21044630.406     -588840.266        2612.139          26.771    21044611.818     -670695.541        1950.827          19.351
G31  23044466.148     -658909.318        3164.851          41.454                                                            
G32  21735015.862     -491505.219        2255.240          20.264    21735009.266     -530774.415        1684.802          13.763
R12  19168763.941     -261040.526        1091.332          32.672                                                            
R11  20636473.467      510090.254       -2495.454          42.004                                                            
R01  20042832.236      150862.689        -764.404          20.526                                                            
> 2019 11 12 08 02 35.0000924  0 11
G10  20267297.642     -171463.461         711.797          37.219    20267296.742     -173926.886         531.501          38.832
G12  21565211.015       18993.166        -171.868          44.247                                                            
G15  25045930.963      432636.069       -2113.761          36.646                                                            
G21  24626532.406      284686.938       -1912.362          18.472                                                            
G24  22931894.080      535503.483       -2481.578          39.113    22931888.984      529485.197       -1853.161          27.323
G25  21044137.547     -591453.170        2612.904          27.031    21044117.161     -672646.607        1952.743          19.488
G31  23043862.366     -662075.220        3165.902          41.767                                                            
G32  21734578.464     -493760.694        2256.896          19.641    21734580.563     -532468.882        1682.310          13.833
R12  19168557.084     -262132.408        1091.882          32.711                                                            
R11  20636945.340      512584.830       -2494.575          42.129                                                            
R01  20042990.227      151624.105        -760.668          22.471                                                            
> 2019 11 12 08 02 36.0000924  0 11
G10  20267164.234     -172174.255         710.794          37.478    20267161.236     -174457.724         530.838          38.901
G12  21565244.892       19165.992        -172.826          44.216                                                            
G15  25046327.888      434750.223       -2114.154          37.070                                                            
G21  24626903.849      286597.026       -1908.724          17.908                                                            
G24  22932363.855      537985.350       -2481.868          39.170    22932362.656      531338.516       -1853.318          28.172
G25  21043645.587     -594065.268        2612.098          26.569    21043619.206     -674597.282        1953.067          20.055
G31  23043260.982     -665240.539        3165.320          41.699                                                            
G32  21734140.468     -496015.974        2256.727          21.039    21734154.258     -534145.199        1684.135          10.446
R12  19168367.915     -263223.186        1090.778          32.899                                                            
R11  20637400.425      515080.113       -2495.284          42.162                                                            
R01  20043134.127      152386.768        -760.453          23.716                                                            
> 2019 11 12 08 02 37.0000924  0 11
G10  20267029.328     -172883.921         709.665          36.884    20267026.330     -174987.681         529.958          38.942
G12  21565278.768       19340.092        -174.100          44.596                                                            
G15  25046730.809      436864.945       -2114.722          36.657                                                            
G21  24627277.391      288507.549       -1908.931          19.882                                                            
G24  22932833.030      540467.880       -2482.529          39.127    22932833.330      533192.337       -1853.822          29.055
G25  21043148.232     -596676.301        2611.033          26.689    21043133.542     -676546.749        1952.519          20.243
G31  23042660.798     -668404.993        3164.453          41.240                                                            
G32  21733730.651     -498270.368        2255.075          21.954    21733725.255     -535832.877        1682.844          14.375
R12  19168170.951     -264312.592        1089.405          33.192                                                            
R11  20637875.896      517576.434       -2496.321          42.594                                                            
R01  20043296.614      153150.490        -764.598          25.255                                                            
> 2019 11 12 08 02 38.0000924  0 11
G10  20266893.522     -173592.682         708.761          36.856    20266891.423     -175516.916         529.234          38.530
G12  21565312.045       19515.155        -175.063          43.996                                                            
G15  25047128.933      438980.109       -2115.164          38.149                                                            
G21  24627647.934      290417.131       -1911.575          19.190                                                            
G24  22933305.503      542950.704       -2482.824          38.340    22933306.702      535046.347       -1854.010          30.015
G25  21042649.077     -599286.460        2610.160          27.602    21042622.995     -678502.241        1951.266          24.760
G31  23042055.217     -671568.828        3163.836          40.905                                                            
G32  21733300.149     -500524.277        2252.539          20.941    21733296.252     -537522.420        1689.461          15.837
R12  19167967.392     -265400.860        1088.269          33.114                                                            
R11  20638337.276      520073.512       -2497.077          42.362                                                            
R01  20043431.821      153915.086        -764.596          27.058                                                            
> 2019 11 12 08 02 39.0000924  0 11
G10  20266761.313     -174300.513         707.831          37.041    20266756.516     -176045.517         528.601          38.452
G12  21565344.723       19691.130        -175.975          43.777                                                            
G15  25047525.859      441095.537       -2115.428          39.286                                                            
G21  24628016.079      292327.915       -1910.687          21.807                                                            
G24  22933777.077      545433.790       -2483.085          37.828    22933780.974      536900.703       -1854.356          28.278
G25  21042158.017     -601895.872        2609.412          27.122    21042128.038     -680450.489        1950.745          22.726
G31  23041454.433     -674732.192        3163.364          40.832                                                            
G32  21732871.746     -502778.196        2254.428          19.436    21732860.354     -539202.257        1686.860          16.788
R12  19167770.429     -266488.201        1087.341          32.680                                                            
R11  20638817.544      522571.234       -2497.722          42.515                                                            
R01  20043571.224      154680.394        -765.309          28.374                                                            
> 2019 11 12 08 02 40.0000924  0 11
G10  20266627.606     -175007.551         707.038          37.401    20266622.209     -176573.460         527.943          38.732
G12  21565377.999       19868.071        -176.941          43.685                                                            
G15  25047924.583      443211.306       -2115.769          40.077                                                            
G21  24628378.229      294238.738       -1910.723          22.386                                                            
G24  22934250.449      547917.146       -2483.356          38.442    22934251.948      538755.118       -1854.388          26.915
G25  21041666.957     -604503.969        2608.394          26.706    21041631.282     -682404.663        1948.194          21.502
G31  23040852.750     -677894.966        3162.774          41.541                                                            
G32  21732455.934     -505031.661        2251.349          18.555    21732432.550     -540889.352        1686.021          15.677
R12  19167569.568     -267574.375        1086.173          33.368                                                            
R11  20639282.222      525069.669       -2498.435          42.817                                                            
R01  20043712.726      155446.675        -766.280          28.244                                                            
> 2019 11 12 08 02 41.0000924  0 11
G10  20266495.097     -175713.752         706.201          36.926    20266487.603     -177100.838         527.378          38.872
G12  21565410.377       20045.739        -177.668          43.584                                                            
G15  25048326.305      445327.269       -2115.963          40.162                                                            
G21  24628739.179      296146.686       -1911.692          21.215                                                            
G24  22934721.423      550400.669       -2483.523          38.277    22934723.222      540609.661       -1854.543          27.416
G25  21041170.201     -607111.758        2607.078          26.463    21041141.421     -684351.893        1946.737          22.355
G31  23040251.066     -681057.295        3162.329          41.934                                                            
G32  21732011.941     -507285.071        2253.262          18.750    21732009.243     -542575.231        1682.439          13.466
R12  19167367.508     -268659.722        1085.347          32.990                                                            
R11  20639748.699      527568.692       -2499.023          42.845                                                            
R01  20043871.317      156213.574        -766.899          28.574                                                            
> 2019 11 12 08 02 42.0000924  0 11
G10  20266360.790     -176419.452         705.700          36.840    20266353.296     -177627.825         526.987          39.215
G12  21565443.054       20224.058        -178.319          43.451                                                            
G15  25048727.727      447443.252       -2115.983          40.156                                                            
G21  24629108.223      298057.485       -1906.827          21.165                                                            
G24  22935194.195      552884.121       -2483.452          37.926    22935194.495      542464.196       -1854.778          27.729
G25  21040671.047     -609719.263        2607.505          26.339    21040638.369     -686307.413        1951.796          24.418
G31  23039649.982     -684219.492        3162.197          42.213                                                            
G32  21731584.437     -509538.416        2257.909          19.841    21731581.739     -544257.327        1682.687          16.452
R12  19167147.760     -269744.341        1084.620          32.595                                                            
R11  20640211.279      530068.121       -2499.429          42.691                                                            
R01  20044017.915      156980.904        -767.331          30.202                                                            
> 2019 11 12 08 02 43.0000924  0 11
G10  20266226.184     -177124.864         705.412          36.856    20266219.288     -178154.542         526.717          39.242
G12  21565478.730       20402.729        -178.670          43.192                                                            
G15  25049128.849      449559.022       -2115.769          40.454                                                            
G21  24629470.073      299967.843       -1909.503          19.640                                                            
G24  22935667.568      555367.376       -2483.255          38.172    22935673.564      544318.553       -1854.358          28.885
G25  21040176.089     -612326.968        2607.705          26.859    21040144.611     -688255.035        1947.241          22.173
G31  23039049.198     -687381.592        3162.100          42.152                                                            
G32  21731148.239     -511792.065        2252.654          20.526    21731155.134     -545941.546        1685.240          15.990
R12  19166948.098     -270828.480        1084.139          33.203                                                            
R11  20640690.647      532567.710       -2499.589          42.481                                                            
R01  20044177.105      157748.651        -767.747          30.602                                                            
> 2019 11 12 08 02 44.0000924  0 11
G10  20266092.476     -177829.742         704.878          36.854    20266085.281     -178680.954         526.411          39.049
G12  21565512.606       20581.885        -179.156          42.770                                                            
G15  25049530.871      451674.647       -2115.625          40.559                                                            
G21  24629841.815      301877.368       -1907.407          19.904                                                            
G24  22936141.240      557850.343       -2482.967          37.755    22936145.437      546172.705       -1854.152          28.793
G25  21039688.027     -614933.864        2606.897          27.065    21039647.255     -690207.306        1945.827          22.030
G31  23038444.517     -690543.684        3162.092          41.945                                                            
G32  21730721.634     -514045.711        2252.463          20.133    21730725.232     -547619.653        1679.960          16.118
R12  19166748.136     -271911.982        1083.502          33.458                                                            
R11  20641144.233      535067.412       -2499.702          42.522                                                            
R01  20044327.601      158516.686        -768.035          30.423                                                            
> 2019 11 12 08 02 45.0000924  0 11
G10  20265956.970     -178534.302         704.560          36.700    20265950.374     -179207.072         526.119          38.965
G12  21565545.284       20761.460        -179.575          43.016                                                            
G15  25049930.194      453790.115       -2115.468          41.101                                                            
G21  24630197.069      303783.033       -1907.305          19.854                                                            
G24  22936613.113      560333.164       -2482.821          37.675    22936616.711      548026.804       -1854.099          28.385
G25  21039190.372     -617540.516        2606.652          27.001    21039160.392     -692154.202        1946.506          22.681
G31  23037843.733     -693705.720        3162.036          42.118                                                            
G32  21730301.026     -516299.727        2254.094          21.019    21730295.330     -549300.002        1680.571          16.668
R12  19166550.573     -272994.921        1082.939          32.940                                                            
R11  20641615.807      537567.402       -2499.991          42.638                                                            
R01  20044475.398      159285.029        -768.344          31.411                                                            
> 2019 11 12 08 02 46.0000924  0 11
G10  20265824.462     -179238.593         704.291          36.668    20265816.967     -179733.046         525.974          39.244
G12  21565583.357       20941.372        -179.913          42.910                                                            
G15  25050328.618      455905.254       -2115.140          41.751                                                            
G21  24630549.625      305684.031       -1908.926          20.654                                                            
G24  22937084.087      562815.627       -2482.462          37.627    22937085.586      549880.609       -1853.805          27.741
G25  21038693.615     -620146.881        2606.365          27.339    21038656.141     -694096.076        1944.160          25.509
G31  23037241.150     -696867.804        3162.084          42.168                                                            
G32  21729878.618     -518553.861        2252.849          21.689    21729863.928     -550983.539        1688.634          16.438
R12  19166350.312     -274077.481        1082.560          32.700                                                            
R11  20642081.384      540067.488       -2500.086          42.655                                                            
R01  20044620.798      160053.647        -768.617          31.232                                                            
> 2019 11 12 08 02 47.0000924  0 11
G10  20265688.955     -179942.187         703.594          37.230    20265683.259     -180258.445         525.399          39.313
G12  21565615.135       21121.996        -180.623          43.119                                                            
G15  25050726.143      458020.561       -2115.307          42.281                                                            
G21  24630906.978      307594.652       -1910.925          20.270                                                            
G24  22937558.958      565298.229       -2482.603          37.893    22937558.059      551734.437       -1853.828          27.231
G25  21038199.558     -622752.607        2605.726          27.755    21038165.081     -696041.403        1945.528          23.872
G31  23036644.263     -700029.525        3161.720          42.076                                                            
G32  21729441.521     -520807.840        2255.741          21.921    21729434.326     -552672.788        1689.753          14.703
R12  19166130.864     -275159.158        1081.677          32.501                                                            
R11  20642552.059      542568.079       -2500.591          42.531                                                            
R01  20044747.010      160822.895        -769.249          31.318                                                            
> 2019 11 12 08 02 48.0000924  0 11
G10  20265557.646     -180645.077         702.890          36.947    20265549.852     -180783.282         524.836          39.429
G12  21565650.811       21303.410        -181.415          43.024                                                            
G15  25051127.565      460136.058       -2115.497          42.195                                                            
G21  24631290.712      309503.116       -1908.206          23.365                                                            
G24  22938029.333      567780.973       -2482.743          37.853    22938031.131      553588.359       -1853.922          28.893
G25  21037697.705     -625357.728        2605.121          27.953    21037663.828     -697981.735        1945.548          23.476
G31  23036041.380     -703190.893        3161.369          42.571                                                            
G32  21729016.415     -523061.929        2251.946          21.452    21729006.222     -554356.536        1689.642          15.532
R12  19165915.913     -276239.916        1080.757          31.853                                                            
R11  20643021.234      545069.209       -2501.130          42.164                                                            
R01  20044885.814      161592.745        -769.849          31.378                                                            
> 2019 11 12 08 02 49.0000924  0 11
G10  20265424.239     -181347.295         702.218          35.742    20265415.845     -181307.728         524.447          39.428
G12  21565686.786       21485.482        -182.071          43.246                                                            
G15  25051525.690      462251.538       -2115.480          42.665                                                            
G21  24631656.459      311411.728       -1908.309          23.692                                                            
G24  22938506.602      570263.658       -2482.685          37.998    22938506.003      555442.508       -1854.149          27.833
G25  21037201.548     -627962.406        2604.678          27.772    21037172.169     -699926.892        1945.392          23.911
G31  23035441.196     -706352.003        3161.110          42.193                                                            
G32  21728576.619     -525315.018        2251.412          19.830    21728579.318     -556043.593        1682.648          16.715
R12  19165736.037     -277319.937        1080.021          30.906                                                            
R11  20643493.707      547570.705       -2501.497          41.396                                                            
R01  20045034.811      162363.198        -770.453          31.665                                                            
